{
"type": "FeatureCollection",
                                                                                
"features": [
{ "type": "Feature", "id": 0, "properties": { "NAME": "Carmelo", "LATITUDE": -33.989619121499999, "LONGITUDE": -58.299992107800001, "brigade": null, "Link": null }, "geometry": { "type": "Point", "coordinates": [ -58.299992107767679, -33.989619121538858 ] } }
,
{ "type": "Feature", "id": 1, "properties": { "NAME": "San Jose de Mayo", "LATITUDE": -34.349958883900001, "LONGITUDE": -56.709985800799998, "brigade": null, "Link": null }, "geometry": { "type": "Point", "coordinates": [ -56.709985800795174, -34.349958883910077 ] } }
,
{ "type": "Feature", "id": 2, "properties": { "NAME": "Artigas", "LATITUDE": -30.415987122800001, "LONGITUDE": -56.486020143200001, "brigade": null, "Link": null }, "geometry": { "type": "Point", "coordinates": [ -56.486020143242143, -30.41598712282666 ] } }
,
{ "type": "Feature", "id": 3, "properties": { "NAME": "Baltasar Brum", "LATITUDE": -30.730024801900001, "LONGITUDE": -57.3199744076, "brigade": null, "Link": null }, "geometry": { "type": "Point", "coordinates": [ -57.319974407568459, -30.730024801864314 ] } }
,
{ "type": "Feature", "id": 4, "properties": { "NAME": "Bella Union", "LATITUDE": -30.259614238699999, "LONGITUDE": -57.599957317700003, "brigade": null, "Link": null }, "geometry": { "type": "Point", "coordinates": [ -57.599957317725782, -30.259614238711393 ] } }
,
{ "type": "Feature", "id": 5, "properties": { "NAME": "Mercedes", "LATITUDE": -33.259534486100002, "LONGITUDE": -58.029982749, "brigade": null, "Link": null }, "geometry": { "type": "Point", "coordinates": [ -58.029982749042631, -33.259534486119215 ] } }
,
{ "type": "Feature", "id": 6, "properties": { "NAME": "Melo", "LATITUDE": -32.359486064899997, "LONGITUDE": -54.179985190399996, "brigade": null, "Link": null }, "geometry": { "type": "Point", "coordinates": [ -54.179985190433449, -32.359486064891712 ] } }
,
{ "type": "Feature", "id": 7, "properties": { "NAME": "Tranqueras", "LATITUDE": -31.2000219536, "LONGITUDE": -55.749966879900001, "brigade": null, "Link": null }, "geometry": { "type": "Point", "coordinates": [ -55.749966879892902, -31.200021953558917 ] } }
,
{ "type": "Feature", "id": 8, "properties": { "NAME": "Rivera", "LATITUDE": -30.899575176199999, "LONGITUDE": -55.560004314799997, "brigade": null, "Link": null }, "geometry": { "type": "Point", "coordinates": [ -55.560004314787889, -30.899575176214011 ] } }
,
{ "type": "Feature", "id": 9, "properties": { "NAME": "Tacuarembo", "LATITUDE": -31.709964987399999, "LONGITUDE": -55.980004518199998, "brigade": null, "Link": null }, "geometry": { "type": "Point", "coordinates": [ -55.98000451824015, -31.709964987415184 ] } }
,
{ "type": "Feature", "id": 10, "properties": { "NAME": "Paso de los Toros", "LATITUDE": -32.810001201600002, "LONGITUDE": -56.5100496843, "brigade": null, "Link": null }, "geometry": { "type": "Point", "coordinates": [ -56.510049684257872, -32.810001201612259 ] } }
,
{ "type": "Feature", "id": 11, "properties": { "NAME": "Vergara", "LATITUDE": -32.929993877400001, "LONGITUDE": -53.949999228499998, "brigade": null, "Link": null }, "geometry": { "type": "Point", "coordinates": [ -53.9499992285185, -32.929993877394011 ] } }
,
{ "type": "Feature", "id": 12, "properties": { "NAME": "Treinta y Tres", "LATITUDE": -33.2300272433, "LONGITUDE": -54.3800246598, "brigade": null, "Link": null }, "geometry": { "type": "Point", "coordinates": [ -54.38002465983535, -33.230027243280574 ] } }
,
{ "type": "Feature", "id": 13, "properties": { "NAME": "Santa Lucia", "LATITUDE": -34.470003236099998, "LONGITUDE": -56.399978883499998, "brigade": null, "Link": null }, "geometry": { "type": "Point", "coordinates": [ -56.399978883476194, -34.470003236124128 ] } }
,
{ "type": "Feature", "id": 14, "properties": { "NAME": "Jose Batlle y Ordonez", "LATITUDE": -33.470012594799996, "LONGITUDE": -55.120005332, "brigade": null, "Link": null }, "geometry": { "type": "Point", "coordinates": [ -55.120005332038787, -33.470012594843979 ] } }
,
{ "type": "Feature", "id": 15, "properties": { "NAME": "Minas", "LATITUDE": -34.370009339600003, "LONGITUDE": -55.230024456400002, "brigade": null, "Link": null }, "geometry": { "type": "Point", "coordinates": [ -55.230024456388158, -34.37000933963931 ] } }
,
{ "type": "Feature", "id": 16, "properties": { "NAME": "Maldonado", "LATITUDE": -34.9100280571, "LONGITUDE": -54.959989259399997, "brigade": null, "Link": null }, "geometry": { "type": "Point", "coordinates": [ -54.959989259447021, -34.910028057089356 ] } }
,
{ "type": "Feature", "id": 17, "properties": { "NAME": "Punta del Este", "LATITUDE": -34.969972718500003, "LONGITUDE": -54.9499898698, "brigade": null, "Link": null }, "geometry": { "type": "Point", "coordinates": [ -54.949989869798522, -34.969972718547993 ] } }
,
{ "type": "Feature", "id": 18, "properties": { "NAME": "Aigua", "LATITUDE": -34.199993877399997, "LONGITUDE": -54.750002076800001, "brigade": null, "Link": null }, "geometry": { "type": "Point", "coordinates": [ -54.750002076828927, -34.199993877399045 ] } }
,
{ "type": "Feature", "id": 19, "properties": { "NAME": "La Paloma", "LATITUDE": -34.669991029099997, "LONGITUDE": -54.169985800799999, "brigade": null, "Link": null }, "geometry": { "type": "Point", "coordinates": [ -54.1699858007849, -34.669991029093602 ] } }
,
{ "type": "Feature", "id": 20, "properties": { "NAME": "Lascano", "LATITUDE": -33.669586976399998, "LONGITUDE": -54.200009807900003, "brigade": null, "Link": null }, "geometry": { "type": "Point", "coordinates": [ -54.200009807946529, -33.669586976355234 ] } }
,
{ "type": "Feature", "id": 21, "properties": { "NAME": "Castillos", "LATITUDE": -34.169608135200001, "LONGITUDE": -53.829980714500003, "brigade": null, "Link": null }, "geometry": { "type": "Point", "coordinates": [ -53.829980714520616, -34.169608135211398 ] } }
,
{ "type": "Feature", "id": 22, "properties": { "NAME": "Rocha", "LATITUDE": -34.482974020599997, "LONGITUDE": -54.3330249447, "brigade": null, "Link": null }, "geometry": { "type": "Point", "coordinates": [ -54.333024944665802, -34.482974020629356 ] } }
,
{ "type": "Feature", "id": 23, "properties": { "NAME": "Faribault", "LATITUDE": 44.290486469599998, "LONGITUDE": -93.268012737800007, "brigade": null, "Link": null }, "geometry": { "type": "Point", "coordinates": [ -93.268012737790244, 44.290486469594669 ] } }
,
{ "type": "Feature", "id": 24, "properties": { "NAME": "Virginia", "LATITUDE": 47.523674132399996, "LONGITUDE": -92.536403647599997, "brigade": null, "Link": null }, "geometry": { "type": "Point", "coordinates": [ -92.53640364761813, 47.523674132367951 ] } }
,
{ "type": "Feature", "id": 25, "properties": { "NAME": "Winona", "LATITUDE": 44.050423603399999, "LONGITUDE": -91.639197430199999, "brigade": null, "Link": null }, "geometry": { "type": "Point", "coordinates": [ -91.639197430166575, 44.050423603382683 ] } }
,
{ "type": "Feature", "id": 26, "properties": { "NAME": "Rochester", "LATITUDE": 44.0220532421, "LONGITUDE": -92.469689373500003, "brigade": null, "Link": null }, "geometry": { "type": "Point", "coordinates": [ -92.469689373529377, 44.022053242054589 ] } }
,
{ "type": "Feature", "id": 27, "properties": { "NAME": "Lakeville", "LATITUDE": 44.650102761900001, "LONGITUDE": -93.242510418500004, "brigade": null, "Link": null }, "geometry": { "type": "Point", "coordinates": [ -93.242510418454302, 44.650102761913793 ] } }
,
{ "type": "Feature", "id": 28, "properties": { "NAME": "Ely", "LATITUDE": 47.900421162, "LONGITUDE": -91.825697674300002, "brigade": null, "Link": null }, "geometry": { "type": "Point", "coordinates": [ -91.825697674307975, 47.900421161991851 ] } }
,
{ "type": "Feature", "id": 29, "properties": { "NAME": "Mankato", "LATITUDE": 44.163620828299997, "LONGITUDE": -93.999156740100005, "brigade": null, "Link": null }, "geometry": { "type": "Point", "coordinates": [ -93.999156740071911, 44.163620828318066 ] } }
,
{ "type": "Feature", "id": 30, "properties": { "NAME": "Albert Lea", "LATITUDE": 43.647786681200003, "LONGITUDE": -93.368704266099996, "brigade": null, "Link": null }, "geometry": { "type": "Point", "coordinates": [ -93.368704266111095, 43.647786681180712 ] } }
,
{ "type": "Feature", "id": 31, "properties": { "NAME": "Willmar", "LATITUDE": 45.121882750499999, "LONGITUDE": -95.043304892699993, "brigade": null, "Link": null }, "geometry": { "type": "Point", "coordinates": [ -95.043304892745326, 45.121882750522502 ] } }
,
{ "type": "Feature", "id": 32, "properties": { "NAME": "Brainerd", "LATITUDE": 46.358008849199997, "LONGITUDE": -94.200849855300007, "brigade": null, "Link": null }, "geometry": { "type": "Point", "coordinates": [ -94.200849855307155, 46.358008849160278 ] } }
,
{ "type": "Feature", "id": 33, "properties": { "NAME": "Crookston", "LATITUDE": 47.773762226400002, "LONGITUDE": -96.607731365700005, "brigade": null, "Link": null }, "geometry": { "type": "Point", "coordinates": [ -96.607731365733414, 47.773762226444482 ] } }
,
{ "type": "Feature", "id": 34, "properties": { "NAME": "Moorhead", "LATITUDE": 46.874308084200003, "LONGITUDE": -96.742193442599998, "brigade": null, "Link": null }, "geometry": { "type": "Point", "coordinates": [ -96.742193442556882, 46.874308084188335 ] } }
,
{ "type": "Feature", "id": 35, "properties": { "NAME": "St. Cloud", "LATITUDE": 45.561209939699999, "LONGITUDE": -94.162221722200002, "brigade": null, "Link": null }, "geometry": { "type": "Point", "coordinates": [ -94.162221722168937, 45.561209939651903 ] } }
,
{ "type": "Feature", "id": 36, "properties": { "NAME": "Hardin", "LATITUDE": 45.731768004400003, "LONGITUDE": -107.612486004, "brigade": null, "Link": null }, "geometry": { "type": "Point", "coordinates": [ -107.612486004449252, 45.73176800443116 ] } }
,
{ "type": "Feature", "id": 37, "properties": { "NAME": "Glendive", "LATITUDE": 47.10858319, "LONGITUDE": -104.710492596, "brigade": null, "Link": null }, "geometry": { "type": "Point", "coordinates": [ -104.710492596234587, 47.108583189983563 ] } }
,
{ "type": "Feature", "id": 38, "properties": { "NAME": "Dillon", "LATITUDE": 45.215675475099999, "LONGITUDE": -112.683985231, "brigade": null, "Link": null }, "geometry": { "type": "Point", "coordinates": [ -112.683985231357582, 45.21567547513223 ] } }
,
{ "type": "Feature", "id": 39, "properties": { "NAME": "Polson", "LATITUDE": 47.688005187100003, "LONGITUDE": -114.156686037, "brigade": null, "Link": null }, "geometry": { "type": "Point", "coordinates": [ -114.156686037027569, 47.688005187056163 ] } }
,
{ "type": "Feature", "id": 40, "properties": { "NAME": "Miles City", "LATITUDE": 46.408884296799997, "LONGITUDE": -105.839984377, "brigade": null, "Link": null }, "geometry": { "type": "Point", "coordinates": [ -105.839984376838018, 46.408884296751573 ] } }
,
{ "type": "Feature", "id": 41, "properties": { "NAME": "Bozeman", "LATITUDE": 45.680091572099997, "LONGITUDE": -111.037832481, "brigade": null, "Link": null }, "geometry": { "type": "Point", "coordinates": [ -111.037832480700018, 45.68009157213924 ] } }
,
{ "type": "Feature", "id": 42, "properties": { "NAME": "Glasgow", "LATITUDE": 48.183969746, "LONGITUDE": -106.635258832, "brigade": null, "Link": null }, "geometry": { "type": "Point", "coordinates": [ -106.635258831593845, 48.183969745977386 ] } }
,
{ "type": "Feature", "id": 43, "properties": { "NAME": "Butte", "LATITUDE": 46.0038960969, "LONGITUDE": -112.533839357, "brigade": null, "Link": null }, "geometry": { "type": "Point", "coordinates": [ -112.533839357333619, 46.003896096880169 ] } }
,
{ "type": "Feature", "id": 44, "properties": { "NAME": "Devils Lake", "LATITUDE": 48.112217019699997, "LONGITUDE": -98.859686932100004, "brigade": null, "Link": null }, "geometry": { "type": "Point", "coordinates": [ -98.859686932148577, 48.112217019740115 ] } }
,
{ "type": "Feature", "id": 45, "properties": { "NAME": "Dickinson", "LATITUDE": 46.8839974152, "LONGITUDE": -102.788801109, "brigade": null, "Link": null }, "geometry": { "type": "Point", "coordinates": [ -102.788801108596672, 46.883997415243016 ] } }
,
{ "type": "Feature", "id": 46, "properties": { "NAME": "Jamestown", "LATITUDE": 46.906011575400001, "LONGITUDE": -98.7029781512, "brigade": null, "Link": null }, "geometry": { "type": "Point", "coordinates": [ -98.702978151223476, 46.906011575399461 ] } }
,
{ "type": "Feature", "id": 47, "properties": { "NAME": "Williston", "LATITUDE": 48.156787942599998, "LONGITUDE": -103.628000531, "brigade": null, "Link": null }, "geometry": { "type": "Point", "coordinates": [ -103.628000530800421, 48.156787942591798 ] } }
,
{ "type": "Feature", "id": 48, "properties": { "NAME": "Grand Forks", "LATITUDE": 47.9252775259, "LONGITUDE": -97.032485801, "brigade": null, "Link": null }, "geometry": { "type": "Point", "coordinates": [ -97.032485800956408, 47.925277525924351 ] } }
,
{ "type": "Feature", "id": 49, "properties": { "NAME": "Lihue", "LATITUDE": 21.981512267, "LONGITUDE": -159.371006309, "brigade": null, "Link": null }, "geometry": { "type": "Point", "coordinates": [ -159.371006309018355, 21.981512267031462 ] } }
,
{ "type": "Feature", "id": 50, "properties": { "NAME": "Wahiawa", "LATITUDE": 21.503091856899999, "LONGITUDE": -158.023620852, "brigade": null, "Link": null }, "geometry": { "type": "Point", "coordinates": [ -158.023620851656176, 21.503091856873358 ] } }
,
{ "type": "Feature", "id": 51, "properties": { "NAME": "Wailuku", "LATITUDE": 20.891475442499999, "LONGITUDE": -156.504721316, "brigade": null, "Link": null }, "geometry": { "type": "Point", "coordinates": [ -156.504721315517259, 20.891475442482765 ] } }
,
{ "type": "Feature", "id": 52, "properties": { "NAME": "Burley", "LATITUDE": 42.535813211099999, "LONGITUDE": -113.791876263, "brigade": null, "Link": null }, "geometry": { "type": "Point", "coordinates": [ -113.791876263263106, 42.53581321112415 ] } }
,
{ "type": "Feature", "id": 53, "properties": { "NAME": "Wallace", "LATITUDE": 47.474219786699997, "LONGITUDE": -115.926888063, "brigade": null, "Link": null }, "geometry": { "type": "Point", "coordinates": [ -115.92688806340189, 47.474219786664762 ] } }
,
{ "type": "Feature", "id": 54, "properties": { "NAME": "Montpelier", "LATITUDE": 42.322622089699998, "LONGITUDE": -111.296912274, "brigade": null, "Link": null }, "geometry": { "type": "Point", "coordinates": [ -111.296912273995304, 42.322622089703998 ] } }
,
{ "type": "Feature", "id": 55, "properties": { "NAME": "Twin Falls", "LATITUDE": 42.560953795400003, "LONGITUDE": -114.460569297, "brigade": null, "Link": null }, "geometry": { "type": "Point", "coordinates": [ -114.46056929711996, 42.560953795434152 ] } }
,
{ "type": "Feature", "id": 56, "properties": { "NAME": "Caldwell", "LATITUDE": 43.660964171400003, "LONGITUDE": -116.670537762, "brigade": null, "Link": null }, "geometry": { "type": "Point", "coordinates": [ -116.670537762298025, 43.660964171414989 ] } }
,
{ "type": "Feature", "id": 57, "properties": { "NAME": "Salmon", "LATITUDE": 45.1756779165, "LONGITUDE": -113.894996584, "brigade": null, "Link": null }, "geometry": { "type": "Point", "coordinates": [ -113.894996583901531, 45.175677916538341 ] } }
,
{ "type": "Feature", "id": 58, "properties": { "NAME": "Coeur d'Alene", "LATITUDE": 47.6780833121, "LONGITUDE": -116.779445843, "brigade": null, "Link": null }, "geometry": { "type": "Point", "coordinates": [ -116.779445843353216, 47.678083312056188 ] } }
,
{ "type": "Feature", "id": 59, "properties": { "NAME": "Pocatello", "LATITUDE": 42.871348286, "LONGITUDE": -112.44472335, "brigade": null, "Link": null }, "geometry": { "type": "Point", "coordinates": [ -112.444723349846157, 42.871348285995225 ] } }
,
{ "type": "Feature", "id": 60, "properties": { "NAME": "Kennewick", "LATITUDE": 46.211376972499998, "LONGITUDE": -119.136097862, "brigade": null, "Link": null }, "geometry": { "type": "Point", "coordinates": [ -119.136097861591765, 46.211376972531987 ] } }
,
{ "type": "Feature", "id": 61, "properties": { "NAME": "Centralia", "LATITUDE": 46.716410745300003, "LONGITUDE": -122.952970827, "brigade": null, "Link": null }, "geometry": { "type": "Point", "coordinates": [ -122.952970827101851, 46.716410745320509 ] } }
,
{ "type": "Feature", "id": 62, "properties": { "NAME": "Richland", "LATITUDE": 46.291811339399999, "LONGITUDE": -119.29110132, "brigade": null, "Link": null }, "geometry": { "type": "Point", "coordinates": [ -119.291101320251258, 46.291811339394272 ] } }
,
{ "type": "Feature", "id": 63, "properties": { "NAME": "Bellingham", "LATITUDE": 48.760136127800003, "LONGITUDE": -122.486926922, "brigade": null, "Link": null }, "geometry": { "type": "Point", "coordinates": [ -122.486926922477565, 48.760136127815635 ] } }
,
{ "type": "Feature", "id": 64, "properties": { "NAME": "Longview", "LATITUDE": 46.138719908699997, "LONGITUDE": -122.936951133, "brigade": null, "Link": null }, "geometry": { "type": "Point", "coordinates": [ -122.93695113309127, 46.138719908729733 ] } }
,
{ "type": "Feature", "id": 65, "properties": { "NAME": "Walla Walla", "LATITUDE": 46.0651585074, "LONGITUDE": -118.341882774, "brigade": null, "Link": null }, "geometry": { "type": "Point", "coordinates": [ -118.341882773698018, 46.065158507362113 ] } }
,
{ "type": "Feature", "id": 66, "properties": { "NAME": "Aberdeen", "LATITUDE": 46.974896259600001, "LONGITUDE": -123.814391115, "brigade": null, "Link": null }, "geometry": { "type": "Point", "coordinates": [ -123.814391115191214, 46.974896259644559 ] } }
,
{ "type": "Feature", "id": 67, "properties": { "NAME": "Bremerton", "LATITUDE": 47.573595523599998, "LONGITUDE": -122.642017533, "brigade": null, "Link": null }, "geometry": { "type": "Point", "coordinates": [ -122.642017532761216, 47.57359552362113 ] } }
,
{ "type": "Feature", "id": 68, "properties": { "NAME": "Everett", "LATITUDE": 47.960417499899997, "LONGITUDE": -122.199967694, "brigade": null, "Link": null }, "geometry": { "type": "Point", "coordinates": [ -122.199967693960701, 47.960417499882745 ] } }
,
{ "type": "Feature", "id": 69, "properties": { "NAME": "Tacoma", "LATITUDE": 47.211315937400002, "LONGITUDE": -122.515013063, "brigade": null, "Link": null }, "geometry": { "type": "Point", "coordinates": [ -122.515013063428142, 47.211315937379709 ] } }
,
{ "type": "Feature", "id": 70, "properties": { "NAME": "Glendale", "LATITUDE": 33.581941140799998, "LONGITUDE": -112.195823814, "brigade": null, "Link": null }, "geometry": { "type": "Point", "coordinates": [ -112.195823813712437, 33.581941140775776 ] } }
,
{ "type": "Feature", "id": 71, "properties": { "NAME": "Safford", "LATITUDE": 32.833821430500002, "LONGITUDE": -109.706880129, "brigade": null, "Link": null }, "geometry": { "type": "Point", "coordinates": [ -109.706880128806645, 32.833821430486346 ] } }
,
{ "type": "Feature", "id": 72, "properties": { "NAME": "Casa Grande", "LATITUDE": 32.879374205600001, "LONGITUDE": -111.756625816, "brigade": null, "Link": null }, "geometry": { "type": "Point", "coordinates": [ -111.756625815663838, 32.879374205551592 ] } }
,
{ "type": "Feature", "id": 73, "properties": { "NAME": "Mesa", "LATITUDE": 33.423914610799997, "LONGITUDE": -111.736084434, "brigade": null, "Link": null }, "geometry": { "type": "Point", "coordinates": [ -111.736084433827799, 33.423914610827197 ] } }
,
{ "type": "Feature", "id": 74, "properties": { "NAME": "Lake Havasu City", "LATITUDE": 34.498293476400001, "LONGITUDE": -114.308278851, "brigade": null, "Link": null }, "geometry": { "type": "Point", "coordinates": [ -114.308278851155777, 34.498293476391318 ] } }
,
{ "type": "Feature", "id": 75, "properties": { "NAME": "Bullhead City", "LATITUDE": 35.148176288899997, "LONGITUDE": -114.567487836, "brigade": null, "Link": null }, "geometry": { "type": "Point", "coordinates": [ -114.567487835531793, 35.148176288894042 ] } }
,
{ "type": "Feature", "id": 76, "properties": { "NAME": "Winslow", "LATITUDE": 35.284705423, "LONGITUDE": -110.700695436, "brigade": null, "Link": null }, "geometry": { "type": "Point", "coordinates": [ -110.70069543642775, 35.284705423009029 ] } }
,
{ "type": "Feature", "id": 77, "properties": { "NAME": "Gila Bend", "LATITUDE": 32.950377623500003, "LONGITUDE": -112.724654584, "brigade": null, "Link": null }, "geometry": { "type": "Point", "coordinates": [ -112.724654583571322, 32.950377623520588 ] } }
,
{ "type": "Feature", "id": 78, "properties": { "NAME": "Tombstone", "LATITUDE": 31.7131404816, "LONGITUDE": -110.066883994, "brigade": null, "Link": null }, "geometry": { "type": "Point", "coordinates": [ -110.066883994367984, 31.71314048158866 ] } }
,
{ "type": "Feature", "id": 79, "properties": { "NAME": "Willcox", "LATITUDE": 32.253210875500002, "LONGITUDE": -109.831394492, "brigade": null, "Link": null }, "geometry": { "type": "Point", "coordinates": [ -109.831394492413892, 32.25321087547097 ] } }
,
{ "type": "Feature", "id": 80, "properties": { "NAME": "Scottsdale", "LATITUDE": 33.692347838400003, "LONGITUDE": -111.868040204, "brigade": null, "Link": null }, "geometry": { "type": "Point", "coordinates": [ -111.868040203685055, 33.692347838367368 ] } }
,
{ "type": "Feature", "id": 81, "properties": { "NAME": "Kingman", "LATITUDE": 35.189879169800001, "LONGITUDE": -114.052222129, "brigade": null, "Link": null }, "geometry": { "type": "Point", "coordinates": [ -114.052222129149428, 35.189879169753581 ] } }
,
{ "type": "Feature", "id": 82, "properties": { "NAME": "Grand Canyon", "LATITUDE": 36.054787617, "LONGITUDE": -112.138592165, "brigade": null, "Link": null }, "geometry": { "type": "Point", "coordinates": [ -112.138592164949159, 36.054787617022548 ] } }
,
{ "type": "Feature", "id": 83, "properties": { "NAME": "Yuma", "LATITUDE": 32.685277525899998, "LONGITUDE": -114.623608441, "brigade": null, "Link": null }, "geometry": { "type": "Point", "coordinates": [ -114.623608441000812, 32.685277525863398 ] } }
,
{ "type": "Feature", "id": 84, "properties": { "NAME": "Prescott", "LATITUDE": 34.590019143699998, "LONGITUDE": -112.447772259, "brigade": null, "Link": null }, "geometry": { "type": "Point", "coordinates": [ -112.447772259351439, 34.590019143709526 ] } }
,
{ "type": "Feature", "id": 85, "properties": { "NAME": "Berkeley", "LATITUDE": 37.873901386599996, "LONGITUDE": -122.271151979, "brigade": null, "Link": null }, "geometry": { "type": "Point", "coordinates": [ -122.271151979442863, 37.873901386561158 ] } }
,
{ "type": "Feature", "id": 86, "properties": { "NAME": "National City", "LATITUDE": 32.6719450063, "LONGITUDE": -117.09800521, "brigade": null, "Link": null }, "geometry": { "type": "Point", "coordinates": [ -117.098005210216357, 32.671945006331995 ] } }
,
{ "type": "Feature", "id": 87, "properties": { "NAME": "Mendocino", "LATITUDE": 39.307767353400003, "LONGITUDE": -123.799430788, "brigade": null, "Link": null }, "geometry": { "type": "Point", "coordinates": [ -123.799430788042642, 39.307767353363708 ] } }
,
{ "type": "Feature", "id": 88, "properties": { "NAME": "Arcata", "LATITUDE": 40.885190449100001, "LONGITUDE": -124.08822453, "brigade": null, "Link": null }, "geometry": { "type": "Point", "coordinates": [ -124.088224529905773, 40.885190449073264 ] } }
,
{ "type": "Feature", "id": 89, "properties": { "NAME": "Paso Robles", "LATITUDE": 35.626596699099998, "LONGITUDE": -120.689982342, "brigade": null, "Link": null }, "geometry": { "type": "Point", "coordinates": [ -120.689982342392184, 35.626596699052115 ] } }
,
{ "type": "Feature", "id": 90, "properties": { "NAME": "Riverside", "LATITUDE": 33.941945006300003, "LONGITUDE": -117.398038576, "brigade": null, "Link": null }, "geometry": { "type": "Point", "coordinates": [ -117.398038576103062, 33.941945006336987 ] } }
,
{ "type": "Feature", "id": 91, "properties": { "NAME": "Delano", "LATITUDE": 35.761937275199998, "LONGITUDE": -119.243068076, "brigade": null, "Link": null }, "geometry": { "type": "Point", "coordinates": [ -119.243068076435918, 35.761937275224575 ] } }
,
{ "type": "Feature", "id": 92, "properties": { "NAME": "San Mateo", "LATITUDE": 37.556918150900003, "LONGITUDE": -122.313061566, "brigade": "Y", "Link": "http:\/\/hackhunger.eventbrite.com\/" }, "geometry": { "type": "Point", "coordinates": [ -122.313061566031507, 37.556918150882893 ] } }
,
{ "type": "Feature", "id": 93, "properties": { "NAME": "Vallejo", "LATITUDE": 38.111948871899997, "LONGITUDE": -122.258052004, "brigade": null, "Link": null }, "geometry": { "type": "Point", "coordinates": [ -122.258052003856875, 38.111948871913732 ] } }
,
{ "type": "Feature", "id": 94, "properties": { "NAME": "Stockton", "LATITUDE": 37.958133971199999, "LONGITUDE": -121.289739016, "brigade": null, "Link": null }, "geometry": { "type": "Point", "coordinates": [ -121.289739015571769, 37.958133971196972 ] } }
,
{ "type": "Feature", "id": 95, "properties": { "NAME": "Barstow", "LATITUDE": 34.899018370599997, "LONGITUDE": -117.021885825, "brigade": null, "Link": null }, "geometry": { "type": "Point", "coordinates": [ -117.021885825450426, 34.899018370598682 ] } }
,
{ "type": "Feature", "id": 96, "properties": { "NAME": "Victorville", "LATITUDE": 34.536508198100002, "LONGITUDE": -117.290319053, "brigade": null, "Link": null }, "geometry": { "type": "Point", "coordinates": [ -117.290319052990654, 34.536508198071189 ] } }
,
{ "type": "Feature", "id": 97, "properties": { "NAME": "Pasadena", "LATITUDE": 34.160381285600003, "LONGITUDE": -118.138871909, "brigade": null, "Link": null }, "geometry": { "type": "Point", "coordinates": [ -118.138871909439302, 34.160381285634791 ] } }
,
{ "type": "Feature", "id": 98, "properties": { "NAME": "Visalia", "LATITUDE": 36.325029519700003, "LONGITUDE": -119.316009361, "brigade": null, "Link": null }, "geometry": { "type": "Point", "coordinates": [ -119.316009360615922, 36.325029519692976 ] } }
,
{ "type": "Feature", "id": 99, "properties": { "NAME": "San Bernardino", "LATITUDE": 34.120383727, "LONGITUDE": -117.300034222, "brigade": null, "Link": null }, "geometry": { "type": "Point", "coordinates": [ -117.301980080874401, 34.122329585653802 ] } }
,
{ "type": "Feature", "id": 100, "properties": { "NAME": "El Centro", "LATITUDE": 32.7923769318, "LONGITUDE": -115.558047528, "brigade": null, "Link": null }, "geometry": { "type": "Point", "coordinates": [ -115.558047527918546, 32.79237693178834 ] } }
,
{ "type": "Feature", "id": 101, "properties": { "NAME": "San Luis Obispo", "LATITUDE": 35.283180968300002, "LONGITUDE": -120.65858891, "brigade": null, "Link": null }, "geometry": { "type": "Point", "coordinates": [ -120.658588909774991, 35.283180968256559 ] } }
,
{ "type": "Feature", "id": 102, "properties": { "NAME": "Merced", "LATITUDE": 37.302618427600002, "LONGITUDE": -120.481933026, "brigade": null, "Link": null }, "geometry": { "type": "Point", "coordinates": [ -120.481933025985072, 37.302618427574544 ] } }
,
{ "type": "Feature", "id": 103, "properties": { "NAME": "Yuba City", "LATITUDE": 39.141033344599997, "LONGITUDE": -121.615765627, "brigade": null, "Link": null }, "geometry": { "type": "Point", "coordinates": [ -121.615765626901165, 39.141033344574005 ] } }
,
{ "type": "Feature", "id": 104, "properties": { "NAME": "Redding", "LATITUDE": 40.587043273, "LONGITUDE": -122.390576214, "brigade": null, "Link": null }, "geometry": { "type": "Point", "coordinates": [ -122.39057621446932, 40.587043272965225 ] } }
,
{ "type": "Feature", "id": 105, "properties": { "NAME": "Santa Rosa", "LATITUDE": 38.4504036652, "LONGITUDE": -122.699988853, "brigade": null, "Link": null }, "geometry": { "type": "Point", "coordinates": [ -122.699988852816944, 38.45040366520935 ] } }
,
{ "type": "Feature", "id": 106, "properties": { "NAME": "Oceanside", "LATITUDE": 33.2204644969, "LONGITUDE": -117.33496749, "brigade": null, "Link": null }, "geometry": { "type": "Point", "coordinates": [ -117.334967490490797, 33.220464496894046 ] } }
,
{ "type": "Feature", "id": 107, "properties": { "NAME": "Modesto", "LATITUDE": 37.655413430800003, "LONGITUDE": -120.98998987, "brigade": null, "Link": null }, "geometry": { "type": "Point", "coordinates": [ -120.989989870062686, 37.65541343083116 ] } }
,
{ "type": "Feature", "id": 108, "properties": { "NAME": "Irvine", "LATITUDE": 33.680410582500002, "LONGITUDE": -117.829950197, "brigade": null, "Link": null }, "geometry": { "type": "Point", "coordinates": [ -117.829950197198485, 33.680410582507875 ] } }
,
{ "type": "Feature", "id": 109, "properties": { "NAME": "Ukiah", "LATITUDE": 39.154236673, "LONGITUDE": -123.210862062, "brigade": null, "Link": null }, "geometry": { "type": "Point", "coordinates": [ -123.21086206245441, 39.154236673024691 ] } }
,
{ "type": "Feature", "id": 110, "properties": { "NAME": "Needles", "LATITUDE": 34.848427143400002, "LONGITUDE": -114.613350669, "brigade": null, "Link": null }, "geometry": { "type": "Point", "coordinates": [ -114.613350669190808, 34.848427143384981 ] } }
,
{ "type": "Feature", "id": 111, "properties": { "NAME": "Bishop", "LATITUDE": 37.363958352700003, "LONGITUDE": -118.39407597, "brigade": null, "Link": null }, "geometry": { "type": "Point", "coordinates": [ -118.394075970312798, 37.36395835270492 ] } }
,
{ "type": "Feature", "id": 112, "properties": { "NAME": "Palm Springs", "LATITUDE": 33.777355569500003, "LONGITUDE": -116.533052614, "brigade": null, "Link": null }, "geometry": { "type": "Point", "coordinates": [ -116.53305261418555, 33.777355569487455 ] } }
,
{ "type": "Feature", "id": 113, "properties": { "NAME": "Santa Maria", "LATITUDE": 34.940126972500003, "LONGITUDE": -120.436638633, "brigade": null, "Link": null }, "geometry": { "type": "Point", "coordinates": [ -120.436638633081301, 34.940126972486958 ] } }
,
{ "type": "Feature", "id": 114, "properties": { "NAME": "Tulare", "LATITUDE": 36.207026386599999, "LONGITUDE": -119.34412134, "brigade": null, "Link": null }, "geometry": { "type": "Point", "coordinates": [ -119.344121339782717, 36.20702638655451 ] } }
,
{ "type": "Feature", "id": 115, "properties": { "NAME": "Mt. Shasta", "LATITUDE": 41.3103582958, "LONGITUDE": -122.309392539, "brigade": null, "Link": null }, "geometry": { "type": "Point", "coordinates": [ -122.309392539338788, 41.310358295754597 ] } }
,
{ "type": "Feature", "id": 116, "properties": { "NAME": "Crescent City", "LATITUDE": 41.756455097500002, "LONGITUDE": -124.200491579, "brigade": null, "Link": null }, "geometry": { "type": "Point", "coordinates": [ -124.200491579059943, 41.756455097514269 ] } }
,
{ "type": "Feature", "id": 117, "properties": { "NAME": "Long Beach", "LATITUDE": 33.786967385899999, "LONGITUDE": -118.158043866, "brigade": null, "Link": null }, "geometry": { "type": "Point", "coordinates": [ -118.158043865819636, 33.786967385893718 ] } }
,
{ "type": "Feature", "id": 118, "properties": { "NAME": "Glenwood Springs", "LATITUDE": 39.546589985200001, "LONGITUDE": -107.324699953, "brigade": null, "Link": null }, "geometry": { "type": "Point", "coordinates": [ -107.324699953015809, 39.546589985200683 ] } }
,
{ "type": "Feature", "id": 119, "properties": { "NAME": "Aurora", "LATITUDE": 39.695857359900003, "LONGITUDE": -104.80849695, "brigade": null, "Link": null }, "geometry": { "type": "Point", "coordinates": [ -104.808496950076076, 39.695857359875838 ] } }
,
{ "type": "Feature", "id": 120, "properties": { "NAME": "Greeley", "LATITUDE": 40.4191982209, "LONGITUDE": -104.739974001, "brigade": null, "Link": null }, "geometry": { "type": "Point", "coordinates": [ -104.73997400085706, 40.419198220881235 ] } }
,
{ "type": "Feature", "id": 121, "properties": { "NAME": "Fort Collins", "LATITUDE": 40.560688292499997, "LONGITUDE": -105.058869265, "brigade": null, "Link": null }, "geometry": { "type": "Point", "coordinates": [ -105.058869264530145, 40.560688292496465 ] } }
,
{ "type": "Feature", "id": 122, "properties": { "NAME": "Pueblo", "LATITUDE": 38.280388203, "LONGITUDE": -104.630006553, "brigade": null, "Link": null }, "geometry": { "type": "Point", "coordinates": [ -104.630006552939918, 38.280388202969036 ] } }
,
{ "type": "Feature", "id": 123, "properties": { "NAME": "Lamar", "LATITUDE": 38.086498229, "LONGITUDE": -102.619405764, "brigade": null, "Link": null }, "geometry": { "type": "Point", "coordinates": [ -102.619405763543853, 38.086498229009969 ] } }
,
{ "type": "Feature", "id": 124, "properties": { "NAME": "Trinidad", "LATITUDE": 37.171334451299998, "LONGITUDE": -104.506396527, "brigade": null, "Link": null }, "geometry": { "type": "Point", "coordinates": [ -104.506396526897731, 37.171334451336982 ] } }
,
{ "type": "Feature", "id": 125, "properties": { "NAME": "Gunnison", "LATITUDE": 38.544764830600002, "LONGITUDE": -106.928290041, "brigade": null, "Link": null }, "geometry": { "type": "Point", "coordinates": [ -106.928290040904884, 38.544764830574373 ] } }
,
{ "type": "Feature", "id": 126, "properties": { "NAME": "Durango", "LATITUDE": 37.275643329899999, "LONGITUDE": -107.879989056, "brigade": null, "Link": null }, "geometry": { "type": "Point", "coordinates": [ -107.879989056208188, 37.275643329918132 ] } }
,
{ "type": "Feature", "id": 127, "properties": { "NAME": "Montrose", "LATITUDE": 38.47727541, "LONGITUDE": -107.865519655, "brigade": null, "Link": null }, "geometry": { "type": "Point", "coordinates": [ -107.865519655166395, 38.477275410001035 ] } }
,
{ "type": "Feature", "id": 128, "properties": { "NAME": "Craig", "LATITUDE": 40.517280089400003, "LONGITUDE": -107.550396771, "brigade": null, "Link": null }, "geometry": { "type": "Point", "coordinates": [ -107.550396771050558, 40.517280089371191 ] } }
,
{ "type": "Feature", "id": 129, "properties": { "NAME": "Boulder", "LATITUDE": 40.038446267799998, "LONGITUDE": -105.246092979, "brigade": null, "Link": null }, "geometry": { "type": "Point", "coordinates": [ -105.246092978723738, 40.0384462677548 ] } }
,
{ "type": "Feature", "id": 130, "properties": { "NAME": "Grand Junction", "LATITUDE": 39.093852761900003, "LONGITUDE": -108.549999839, "brigade": null, "Link": null }, "geometry": { "type": "Point", "coordinates": [ -108.549999839088429, 39.093852761891505 ] } }
,
{ "type": "Feature", "id": 131, "properties": { "NAME": "Tonopah", "LATITUDE": 38.066990375800003, "LONGITUDE": -117.228979128, "brigade": null, "Link": null }, "geometry": { "type": "Point", "coordinates": [ -117.228979127860143, 38.066990375819728 ] } }
,
{ "type": "Feature", "id": 132, "properties": { "NAME": "Boulder City", "LATITUDE": 35.978952452599998, "LONGITUDE": -114.831580243, "brigade": null, "Link": null }, "geometry": { "type": "Point", "coordinates": [ -114.831580242759287, 35.978952452634253 ] } }
,
{ "type": "Feature", "id": 133, "properties": { "NAME": "Winnemucca", "LATITUDE": 40.973376280799997, "LONGITUDE": -117.734684694, "brigade": null, "Link": null }, "geometry": { "type": "Point", "coordinates": [ -117.734684694268367, 40.973376280779249 ] } }
,
{ "type": "Feature", "id": 134, "properties": { "NAME": "Ely", "LATITUDE": 39.247021707199998, "LONGITUDE": -114.88767501, "brigade": null, "Link": null }, "geometry": { "type": "Point", "coordinates": [ -114.887675010012174, 39.247021707204794 ] } }
,
{ "type": "Feature", "id": 135, "properties": { "NAME": "Carson City", "LATITUDE": 39.163848489400003, "LONGITUDE": -119.766395306, "brigade": null, "Link": null }, "geometry": { "type": "Point", "coordinates": [ -119.76639530625576, 39.16384848943089 ] } }
,
{ "type": "Feature", "id": 136, "properties": { "NAME": "Deming", "LATITUDE": 32.261091531399998, "LONGITUDE": -107.755784751, "brigade": null, "Link": null }, "geometry": { "type": "Point", "coordinates": [ -107.755784751194668, 32.261091531395437 ] } }
,
{ "type": "Feature", "id": 137, "properties": { "NAME": "Truth or Consequences", "LATITUDE": 33.133596414199999, "LONGITUDE": -107.25289555, "brigade": null, "Link": null }, "geometry": { "type": "Point", "coordinates": [ -107.25289555034631, 33.133596414211411 ] } }
,
{ "type": "Feature", "id": 138, "properties": { "NAME": "Las Vegas", "LATITUDE": 35.597011941600002, "LONGITUDE": -105.222502687, "brigade": "Y", "Link": "http:\/\/www.vegashack.com\/" }, "geometry": { "type": "Point", "coordinates": [ -105.222502687382317, 35.597011941565071 ] } }
,
{ "type": "Feature", "id": 139, "properties": { "NAME": "Farmington", "LATITUDE": 36.7541506134, "LONGITUDE": -108.186094403, "brigade": null, "Link": null }, "geometry": { "type": "Point", "coordinates": [ -108.186094402889125, 36.754150613444665 ] } }
,
{ "type": "Feature", "id": 140, "properties": { "NAME": "Roswell", "LATITUDE": 33.394536559099997, "LONGITUDE": -104.522467897, "brigade": null, "Link": null }, "geometry": { "type": "Point", "coordinates": [ -104.52246789734059, 33.394536559069294 ] } }
,
{ "type": "Feature", "id": 141, "properties": { "NAME": "Clovis", "LATITUDE": 34.405069192500001, "LONGITUDE": -103.20477055, "brigade": null, "Link": null }, "geometry": { "type": "Point", "coordinates": [ -103.204770550330139, 34.405069192536864 ] } }
,
{ "type": "Feature", "id": 142, "properties": { "NAME": "Las Cruces", "LATITUDE": 32.312612934400001, "LONGITUDE": -106.77780827, "brigade": null, "Link": null }, "geometry": { "type": "Point", "coordinates": [ -106.777808270070977, 32.312612934390593 ] } }
,
{ "type": "Feature", "id": 143, "properties": { "NAME": "Hobbs", "LATITUDE": 32.712614358499998, "LONGITUDE": -103.14061426, "brigade": null, "Link": null }, "geometry": { "type": "Point", "coordinates": [ -103.140614259639747, 32.712614358545764 ] } }
,
{ "type": "Feature", "id": 144, "properties": { "NAME": "Socorro", "LATITUDE": 34.062118549600001, "LONGITUDE": -106.898989504, "brigade": null, "Link": null }, "geometry": { "type": "Point", "coordinates": [ -106.898989503795406, 34.062118549631847 ] } }
,
{ "type": "Feature", "id": 145, "properties": { "NAME": "Gallup", "LATITUDE": 35.524070657400003, "LONGITUDE": -108.733993776, "brigade": null, "Link": null }, "geometry": { "type": "Point", "coordinates": [ -108.733993776263617, 35.52407065738516 ] } }
,
{ "type": "Feature", "id": 146, "properties": { "NAME": "Raton", "LATITUDE": 36.897397683800001, "LONGITUDE": -104.439888959, "brigade": null, "Link": null }, "geometry": { "type": "Point", "coordinates": [ -104.439888958538148, 36.897397683757781 ] } }
,
{ "type": "Feature", "id": 147, "properties": { "NAME": "Tucumcari", "LATITUDE": 35.169802875800002, "LONGITUDE": -103.725513959, "brigade": null, "Link": null }, "geometry": { "type": "Point", "coordinates": [ -103.725513958535331, 35.169802875808216 ] } }
,
{ "type": "Feature", "id": 148, "properties": { "NAME": "Carlsbad", "LATITUDE": 32.4205650014, "LONGITUDE": -104.228299807, "brigade": null, "Link": null }, "geometry": { "type": "Point", "coordinates": [ -104.228299806519061, 32.420565001448161 ] } }
,
{ "type": "Feature", "id": 149, "properties": { "NAME": "Alamogordo", "LATITUDE": 32.899476337700001, "LONGITUDE": -105.95971867, "brigade": null, "Link": null }, "geometry": { "type": "Point", "coordinates": [ -105.959718670458258, 32.899476337713118 ] } }
,
{ "type": "Feature", "id": 150, "properties": { "NAME": "Springfield", "LATITUDE": 44.051948058100002, "LONGITUDE": -122.978033897, "brigade": null, "Link": null }, "geometry": { "type": "Point", "coordinates": [ -122.978033896763264, 44.051948058135338 ] } }
,
{ "type": "Feature", "id": 151, "properties": { "NAME": "Tillamook", "LATITUDE": 45.455247415199999, "LONGITUDE": -123.842503094, "brigade": null, "Link": null }, "geometry": { "type": "Point", "coordinates": [ -123.842503094357951, 45.455247415237288 ] } }
,
{ "type": "Feature", "id": 152, "properties": { "NAME": "Ontario", "LATITUDE": 44.026626606299999, "LONGITUDE": -116.961889488, "brigade": null, "Link": null }, "geometry": { "type": "Point", "coordinates": [ -116.961889487559631, 44.026626606312391 ] } }
,
{ "type": "Feature", "id": 153, "properties": { "NAME": "La Grande", "LATITUDE": 45.324686909100002, "LONGITUDE": -118.086601198, "brigade": null, "Link": null }, "geometry": { "type": "Point", "coordinates": [ -118.086601198176041, 45.324686909051998 ] } }
,
{ "type": "Feature", "id": 154, "properties": { "NAME": "Roseburg", "LATITUDE": 43.218433043499999, "LONGITUDE": -123.356098675, "brigade": null, "Link": null }, "geometry": { "type": "Point", "coordinates": [ -123.356098675410763, 43.218433043483564 ] } }
,
{ "type": "Feature", "id": 155, "properties": { "NAME": "Pendleton", "LATITUDE": 45.672598489499997, "LONGITUDE": -118.787488649, "brigade": null, "Link": null }, "geometry": { "type": "Point", "coordinates": [ -118.787488649350706, 45.672598489456895 ] } }
,
{ "type": "Feature", "id": 156, "properties": { "NAME": "John Day", "LATITUDE": 44.416525288, "LONGITUDE": -118.95202641, "brigade": null, "Link": null }, "geometry": { "type": "Point", "coordinates": [ -118.952026409768138, 44.416525287954592 ] } }
,
{ "type": "Feature", "id": 157, "properties": { "NAME": "Grants Pass", "LATITUDE": 42.439540017799999, "LONGITUDE": -123.327185712, "brigade": null, "Link": null }, "geometry": { "type": "Point", "coordinates": [ -123.327185711543422, 42.439540017764394 ] } }
,
{ "type": "Feature", "id": 158, "properties": { "NAME": "Corvallis", "LATITUDE": 44.572355569499997, "LONGITUDE": -123.279979291, "brigade": null, "Link": null }, "geometry": { "type": "Point", "coordinates": [ -123.279979290644818, 44.572355569530728 ] } }
,
{ "type": "Feature", "id": 159, "properties": { "NAME": "Albany", "LATITUDE": 44.620492166200002, "LONGITUDE": -123.086941978, "brigade": null, "Link": null }, "geometry": { "type": "Point", "coordinates": [ -123.086941977818498, 44.620492166210575 ] } }
,
{ "type": "Feature", "id": 160, "properties": { "NAME": "Astoria", "LATITUDE": 46.1883809602, "LONGITUDE": -123.829997398, "brigade": null, "Link": null }, "geometry": { "type": "Point", "coordinates": [ -123.829997397743369, 46.188380960162256 ] } }
,
{ "type": "Feature", "id": 161, "properties": { "NAME": "Medford", "LATITUDE": 42.326627013200003, "LONGITUDE": -122.87442265, "brigade": null, "Link": null }, "geometry": { "type": "Point", "coordinates": [ -122.874422650018175, 42.326627013206682 ] } }
,
{ "type": "Feature", "id": 162, "properties": { "NAME": "Klamath Falls", "LATITUDE": 42.225005309099998, "LONGITUDE": -121.780535931, "brigade": null, "Link": null }, "geometry": { "type": "Point", "coordinates": [ -121.780535931263728, 42.225005309104581 ] } }
,
{ "type": "Feature", "id": 163, "properties": { "NAME": "Richfield", "LATITUDE": 38.772477029500003, "LONGITUDE": -112.083298382, "brigade": null, "Link": null }, "geometry": { "type": "Point", "coordinates": [ -112.083298382396919, 38.772477029468469 ] } }
,
{ "type": "Feature", "id": 164, "properties": { "NAME": "Nephi", "LATITUDE": 39.710275084499997, "LONGITUDE": -111.835484051, "brigade": null, "Link": null }, "geometry": { "type": "Point", "coordinates": [ -111.835484051341169, 39.710275084485254 ] } }
,
{ "type": "Feature", "id": 165, "properties": { "NAME": "Logan", "LATITUDE": 41.735939553900003, "LONGITUDE": -111.833597862, "brigade": null, "Link": null }, "geometry": { "type": "Point", "coordinates": [ -111.833597861562581, 41.735939553894397 ] } }
,
{ "type": "Feature", "id": 166, "properties": { "NAME": "Parowan", "LATITUDE": 37.842533792200001, "LONGITUDE": -112.827206463, "brigade": null, "Link": null }, "geometry": { "type": "Point", "coordinates": [ -112.827206463454573, 37.842533792160118 ] } }
,
{ "type": "Feature", "id": 167, "properties": { "NAME": "Kanab", "LATITUDE": 37.047388528500001, "LONGITUDE": -112.525493614, "brigade": null, "Link": null }, "geometry": { "type": "Point", "coordinates": [ -112.525493613518464, 37.047388528484987 ] } }
,
{ "type": "Feature", "id": 168, "properties": { "NAME": "Monticello", "LATITUDE": 37.8717826528, "LONGITUDE": -109.342199546, "brigade": null, "Link": null }, "geometry": { "type": "Point", "coordinates": [ -109.342199546122814, 37.871782652837226 ] } }
,
{ "type": "Feature", "id": 169, "properties": { "NAME": "Moab", "LATITUDE": 38.573703632700003, "LONGITUDE": -109.549189496, "brigade": null, "Link": null }, "geometry": { "type": "Point", "coordinates": [ -109.549189495667932, 38.573703632657711 ] } }
,
{ "type": "Feature", "id": 170, "properties": { "NAME": "Price", "LATITUDE": 39.599790872200003, "LONGITUDE": -110.810016929, "brigade": null, "Link": null }, "geometry": { "type": "Point", "coordinates": [ -110.810016928941224, 39.599790872245244 ] } }
,
{ "type": "Feature", "id": 171, "properties": { "NAME": "Cedar City", "LATITUDE": 37.677427591, "LONGITUDE": -113.061093996, "brigade": null, "Link": null }, "geometry": { "type": "Point", "coordinates": [ -113.0610939960076, 37.67742759098747 ] } }
,
{ "type": "Feature", "id": 172, "properties": { "NAME": "Vernal", "LATITUDE": 40.455397561700003, "LONGITUDE": -109.528002158, "brigade": null, "Link": null }, "geometry": { "type": "Point", "coordinates": [ -109.528002158428251, 40.455397561701773 ] } }
,
{ "type": "Feature", "id": 173, "properties": { "NAME": "Ogden", "LATITUDE": 41.232378559399997, "LONGITUDE": -111.9680341, "brigade": null, "Link": null }, "geometry": { "type": "Point", "coordinates": [ -111.968034100169874, 41.232378559426138 ] } }
,
{ "type": "Feature", "id": 174, "properties": { "NAME": "St. George", "LATITUDE": 37.104155089400003, "LONGITUDE": -113.583336021, "brigade": null, "Link": null }, "geometry": { "type": "Point", "coordinates": [ -113.583336020749201, 37.104155089357491 ] } }
,
{ "type": "Feature", "id": 175, "properties": { "NAME": "Provo", "LATITUDE": 40.248898538299997, "LONGITUDE": -111.637770021, "brigade": null, "Link": null }, "geometry": { "type": "Point", "coordinates": [ -111.637770021392527, 40.248898538263333 ] } }
,
{ "type": "Feature", "id": 176, "properties": { "NAME": "Lander", "LATITUDE": 42.833004373199998, "LONGITUDE": -108.732598513, "brigade": null, "Link": null }, "geometry": { "type": "Point", "coordinates": [ -108.732598512591835, 42.833004373234751 ] } }
,
{ "type": "Feature", "id": 177, "properties": { "NAME": "Powell", "LATITUDE": 44.758674946200003, "LONGITUDE": -108.758436729, "brigade": null, "Link": null }, "geometry": { "type": "Point", "coordinates": [ -108.758436728737721, 44.75867494615904 ] } }
,
{ "type": "Feature", "id": 178, "properties": { "NAME": "Green River", "LATITUDE": 41.514557718, "LONGITUDE": -109.464982749, "brigade": null, "Link": null }, "geometry": { "type": "Point", "coordinates": [ -109.464982749248364, 41.514557717955924 ] } }
,
{ "type": "Feature", "id": 179, "properties": { "NAME": "Rawlins", "LATITUDE": 41.790664895699997, "LONGITUDE": -107.234292035, "brigade": null, "Link": null }, "geometry": { "type": "Point", "coordinates": [ -107.23429203472115, 41.790664895691471 ] } }
,
{ "type": "Feature", "id": 180, "properties": { "NAME": "Douglas", "LATITUDE": 42.756471577, "LONGITUDE": -105.384534141, "brigade": null, "Link": null }, "geometry": { "type": "Point", "coordinates": [ -105.384534140833594, 42.756471577010423 ] } }
,
{ "type": "Feature", "id": 181, "properties": { "NAME": "Riverton", "LATITUDE": 43.028160419800003, "LONGITUDE": -108.395048057, "brigade": null, "Link": null }, "geometry": { "type": "Point", "coordinates": [ -108.395048056861313, 43.028160419784911 ] } }
,
{ "type": "Feature", "id": 182, "properties": { "NAME": "Thermopolis", "LATITUDE": 43.645978006100002, "LONGITUDE": -108.21467147, "brigade": null, "Link": null }, "geometry": { "type": "Point", "coordinates": [ -108.214671469946452, 43.645978006050377 ] } }
,
{ "type": "Feature", "id": 183, "properties": { "NAME": "Gillette", "LATITUDE": 44.283174254400002, "LONGITUDE": -105.505250287, "brigade": null, "Link": null }, "geometry": { "type": "Point", "coordinates": [ -105.505250286667447, 44.283174254425262 ] } }
,
{ "type": "Feature", "id": 184, "properties": { "NAME": "Laramie", "LATITUDE": 41.311365986200002, "LONGITUDE": -105.590568076, "brigade": null, "Link": null }, "geometry": { "type": "Point", "coordinates": [ -105.590568076381331, 41.311365986184356 ] } }
,
{ "type": "Feature", "id": 185, "properties": { "NAME": "Paragould", "LATITUDE": 36.057087218299998, "LONGITUDE": -90.502884360500005, "brigade": null, "Link": null }, "geometry": { "type": "Point", "coordinates": [ -90.502884360500516, 36.05708721825966 ] } }
,
{ "type": "Feature", "id": 186, "properties": { "NAME": "Jonesboro", "LATITUDE": 35.8425783478, "LONGITUDE": -90.704164064300002, "brigade": null, "Link": null }, "geometry": { "type": "Point", "coordinates": [ -90.704164064277464, 35.842578347816023 ] } }
,
{ "type": "Feature", "id": 187, "properties": { "NAME": "Texarkana", "LATITUDE": 33.442104715, "LONGITUDE": -94.037474814600003, "brigade": null, "Link": null }, "geometry": { "type": "Point", "coordinates": [ -94.037474814616374, 33.442104714993874 ] } }
,
{ "type": "Feature", "id": 188, "properties": { "NAME": "Pine Bluff", "LATITUDE": 34.228697529100003, "LONGITUDE": -92.003051189900006, "brigade": null, "Link": null }, "geometry": { "type": "Point", "coordinates": [ -92.003051189933686, 34.228697529124744 ] } }
,
{ "type": "Feature", "id": 189, "properties": { "NAME": "Hot Springs", "LATITUDE": 34.503952045699997, "LONGITUDE": -93.055002483899997, "brigade": null, "Link": null }, "geometry": { "type": "Point", "coordinates": [ -93.055002483883243, 34.503952045727488 ] } }
,
{ "type": "Feature", "id": 190, "properties": { "NAME": "Fort Smith", "LATITUDE": 35.386223774199998, "LONGITUDE": -94.398357179499996, "brigade": null, "Link": null }, "geometry": { "type": "Point", "coordinates": [ -94.398357179526627, 35.386223774246631 ] } }
,
{ "type": "Feature", "id": 191, "properties": { "NAME": "Fayetteville", "LATITUDE": 36.062978331499998, "LONGITUDE": -94.157209108199993, "brigade": null, "Link": null }, "geometry": { "type": "Point", "coordinates": [ -94.157209108236614, 36.062978331540918 ] } }
,
{ "type": "Feature", "id": 192, "properties": { "NAME": "Conway", "LATITUDE": 35.091280536900001, "LONGITUDE": -92.451318401799995, "brigade": null, "Link": null }, "geometry": { "type": "Point", "coordinates": [ -92.451318401849576, 35.091280536940701 ] } }
,
{ "type": "Feature", "id": 193, "properties": { "NAME": "El Dorado", "LATITUDE": 33.213927428200002, "LONGITUDE": -92.662519980599996, "brigade": null, "Link": null }, "geometry": { "type": "Point", "coordinates": [ -92.662519980626442, 33.213927428209267 ] } }
,
{ "type": "Feature", "id": 194, "properties": { "NAME": "Little Rock", "LATITUDE": 34.736082579600001, "LONGITUDE": -92.331093182100005, "brigade": null, "Link": null }, "geometry": { "type": "Point", "coordinates": [ -92.331093182122515, 34.736082579582551 ] } }
,
{ "type": "Feature", "id": 195, "properties": { "NAME": "Iowa City", "LATITUDE": 41.661086241699998, "LONGITUDE": -91.529979290499995, "brigade": null, "Link": null }, "geometry": { "type": "Point", "coordinates": [ -91.529979290517701, 41.661086241719467 ] } }
,
{ "type": "Feature", "id": 196, "properties": { "NAME": "Ottumwa", "LATITUDE": 41.012882913299997, "LONGITUDE": -92.414809002400006, "brigade": null, "Link": null }, "geometry": { "type": "Point", "coordinates": [ -92.414809002435405, 41.012882913266431 ] } }
,
{ "type": "Feature", "id": 197, "properties": { "NAME": "Davenport", "LATITUDE": 41.553986835800004, "LONGITUDE": -90.587530356599999, "brigade": null, "Link": null }, "geometry": { "type": "Point", "coordinates": [ -90.587530356594783, 41.553986835794717 ] } }
,
{ "type": "Feature", "id": 198, "properties": { "NAME": "Burlington", "LATITUDE": 40.807934182799997, "LONGITUDE": -91.112769614399994, "brigade": null, "Link": null }, "geometry": { "type": "Point", "coordinates": [ -91.112769614409288, 40.80793418279687 ] } }
,
{ "type": "Feature", "id": 199, "properties": { "NAME": "Dubuque", "LATITUDE": 42.500931619299998, "LONGITUDE": -90.6644507261, "brigade": null, "Link": null }, "geometry": { "type": "Point", "coordinates": [ -90.664450726061219, 42.500931619327105 ] } }
,
{ "type": "Feature", "id": 200, "properties": { "NAME": "Waterloo", "LATITUDE": 42.4931543163, "LONGITUDE": -92.342797894, "brigade": null, "Link": null }, "geometry": { "type": "Point", "coordinates": [ -92.342797894036636, 42.493154316267223 ] } }
,
{ "type": "Feature", "id": 201, "properties": { "NAME": "Spencer", "LATITUDE": 43.145285053599999, "LONGITUDE": -95.147174521699995, "brigade": null, "Link": null }, "geometry": { "type": "Point", "coordinates": [ -95.147174521652019, 43.145285053574419 ] } }
,
{ "type": "Feature", "id": 202, "properties": { "NAME": "Ft. Dodge", "LATITUDE": 42.5068227326, "LONGITUDE": -94.180256797, "brigade": null, "Link": null }, "geometry": { "type": "Point", "coordinates": [ -94.180256797038808, 42.50682273260837 ] } }
,
{ "type": "Feature", "id": 203, "properties": { "NAME": "Sioux City", "LATITUDE": 42.5003890168, "LONGITUDE": -96.399992107900005, "brigade": null, "Link": null }, "geometry": { "type": "Point", "coordinates": [ -96.399992107920085, 42.500389016788013 ] } }
,
{ "type": "Feature", "id": 204, "properties": { "NAME": "Council Bluffs", "LATITUDE": 41.262273375500001, "LONGITUDE": -95.860800213399997, "brigade": null, "Link": null }, "geometry": { "type": "Point", "coordinates": [ -95.860800213386625, 41.262273375507093 ] } }
,
{ "type": "Feature", "id": 205, "properties": { "NAME": "Ames", "LATITUDE": 42.053852965399997, "LONGITUDE": -93.619722536, "brigade": null, "Link": null }, "geometry": { "type": "Point", "coordinates": [ -93.619722535968734, 42.053852965353876 ] } }
,
{ "type": "Feature", "id": 206, "properties": { "NAME": "Mason City", "LATITUDE": 43.154018370599999, "LONGITUDE": -93.200833375800002, "brigade": null, "Link": null }, "geometry": { "type": "Point", "coordinates": [ -93.200833375810902, 43.154018370631718 ] } }
,
{ "type": "Feature", "id": 207, "properties": { "NAME": "Hutchinson", "LATITUDE": 38.065491759300002, "LONGITUDE": -97.923490846500002, "brigade": null, "Link": null }, "geometry": { "type": "Point", "coordinates": [ -97.923490846532857, 38.065491759283304 ] } }
,
{ "type": "Feature", "id": 208, "properties": { "NAME": "Kansas City", "LATITUDE": 39.113580516900001, "LONGITUDE": -94.630146377100004, "brigade": null, "Link": null }, "geometry": { "type": "Point", "coordinates": [ -94.630146377123737, 39.113580516943451 ] } }
,
{ "type": "Feature", "id": 209, "properties": { "NAME": "Lawrence", "LATITUDE": 38.959752420100003, "LONGITUDE": -95.255229941600007, "brigade": null, "Link": null }, "geometry": { "type": "Point", "coordinates": [ -95.255229941574342, 38.959752420094176 ] } }
,
{ "type": "Feature", "id": 210, "properties": { "NAME": "Garden City", "LATITUDE": 37.975213032100001, "LONGITUDE": -100.86408655, "brigade": null, "Link": null }, "geometry": { "type": "Point", "coordinates": [ -100.864086549669722, 37.975213032069405 ] } }
,
{ "type": "Feature", "id": 211, "properties": { "NAME": "Manhattan", "LATITUDE": 39.194027525899997, "LONGITUDE": -96.592435141799996, "brigade": null, "Link": null }, "geometry": { "type": "Point", "coordinates": [ -96.592435141775027, 39.194027525889389 ] } }
,
{ "type": "Feature", "id": 212, "properties": { "NAME": "Hays", "LATITUDE": 38.879369729700002, "LONGITUDE": -99.322191001199997, "brigade": null, "Link": null }, "geometry": { "type": "Point", "coordinates": [ -99.322191001160846, 38.879369729664212 ] } }
,
{ "type": "Feature", "id": 213, "properties": { "NAME": "Goodland", "LATITUDE": 39.348488382, "LONGITUDE": -101.711037437, "brigade": null, "Link": null }, "geometry": { "type": "Point", "coordinates": [ -101.711037436717348, 39.348488382009812 ] } }
,
{ "type": "Feature", "id": 214, "properties": { "NAME": "Emporia", "LATITUDE": 38.404230773, "LONGITUDE": -96.181374961100005, "brigade": null, "Link": null }, "geometry": { "type": "Point", "coordinates": [ -96.181374961109341, 38.404230772956446 ] } }
,
{ "type": "Feature", "id": 215, "properties": { "NAME": "Salina", "LATITUDE": 38.824670226099997, "LONGITUDE": -97.607179404500002, "brigade": null, "Link": null }, "geometry": { "type": "Point", "coordinates": [ -97.60717940447438, 38.824670226083249 ] } }
,
{ "type": "Feature", "id": 216, "properties": { "NAME": "Dodge City", "LATITUDE": 37.7600582062, "LONGITUDE": -100.018195029, "brigade": null, "Link": null }, "geometry": { "type": "Point", "coordinates": [ -100.018195029483948, 37.760058206222247 ] } }
,
{ "type": "Feature", "id": 217, "properties": { "NAME": "Coffeyville", "LATITUDE": 37.038060932500002, "LONGITUDE": -95.626318401899994, "brigade": null, "Link": null }, "geometry": { "type": "Point", "coordinates": [ -95.626318401862321, 37.038060932456233 ] } }
,
{ "type": "Feature", "id": 218, "properties": { "NAME": "Wichita", "LATITUDE": 37.719983133, "LONGITUDE": -97.329987021700006, "brigade": null, "Link": null }, "geometry": { "type": "Point", "coordinates": [ -97.329987021660784, 37.719983132979799 ] } }
,
{ "type": "Feature", "id": 219, "properties": { "NAME": "St. Charles", "LATITUDE": 38.784285094200001, "LONGITUDE": -90.506165814, "brigade": null, "Link": null }, "geometry": { "type": "Point", "coordinates": [ -90.506165813951156, 38.784285094247032 ] } }
,
{ "type": "Feature", "id": 220, "properties": { "NAME": "Poplar Bluff", "LATITUDE": 36.760196756, "LONGITUDE": -90.4026837583, "brigade": null, "Link": null }, "geometry": { "type": "Point", "coordinates": [ -90.402683758286699, 36.7601967560229 ] } }
,
{ "type": "Feature", "id": 221, "properties": { "NAME": "Independence", "LATITUDE": 39.091113911, "LONGITUDE": -94.415281211099995, "brigade": null, "Link": null }, "geometry": { "type": "Point", "coordinates": [ -94.415281211102254, 39.091113910980148 ] } }
,
{ "type": "Feature", "id": 222, "properties": { "NAME": "Kirksville", "LATITUDE": 40.193682270399997, "LONGITUDE": -92.582809083800001, "brigade": null, "Link": null }, "geometry": { "type": "Point", "coordinates": [ -92.582809083816201, 40.193682270359609 ] } }
,
{ "type": "Feature", "id": 223, "properties": { "NAME": "Joplin", "LATITUDE": 37.084595559699999, "LONGITUDE": -94.513078859199993, "brigade": null, "Link": null }, "geometry": { "type": "Point", "coordinates": [ -94.513078859214616, 37.084595559735085 ] } }
,
{ "type": "Feature", "id": 224, "properties": { "NAME": "Columbia", "LATITUDE": 38.952078469900002, "LONGITUDE": -92.333909547700003, "brigade": null, "Link": null }, "geometry": { "type": "Point", "coordinates": [ -92.333909547682339, 38.952078469898872 ] } }
,
{ "type": "Feature", "id": 225, "properties": { "NAME": "St. Joseph", "LATITUDE": 39.769031188, "LONGITUDE": -94.846391847500001, "brigade": null, "Link": null }, "geometry": { "type": "Point", "coordinates": [ -94.846391847497188, 39.769031188001009 ] } }
,
{ "type": "Feature", "id": 226, "properties": { "NAME": "Jefferson City", "LATITUDE": 38.576623351099997, "LONGITUDE": -92.173325034300007, "brigade": null, "Link": null }, "geometry": { "type": "Point", "coordinates": [ -92.173325034335463, 38.576623351082297 ] } }
,
{ "type": "Feature", "id": 227, "properties": { "NAME": "Kearney", "LATITUDE": 40.700705585800002, "LONGITUDE": -99.081146282700004, "brigade": null, "Link": null }, "geometry": { "type": "Point", "coordinates": [ -99.081146282735475, 40.70070558579112 ] } }
,
{ "type": "Feature", "id": 228, "properties": { "NAME": "Grand Island", "LATITUDE": 40.922268289199998, "LONGITUDE": -98.357986289199999, "brigade": null, "Link": null }, "geometry": { "type": "Point", "coordinates": [ -98.35798628924303, 40.922268289242595 ] } }
,
{ "type": "Feature", "id": 229, "properties": { "NAME": "Alliance", "LATITUDE": 42.101395283099997, "LONGITUDE": -102.870191489, "brigade": null, "Link": null }, "geometry": { "type": "Point", "coordinates": [ -102.870191489456346, 42.101395283062452 ] } }
,
{ "type": "Feature", "id": 230, "properties": { "NAME": "McCook", "LATITUDE": 40.205593688, "LONGITUDE": -100.626168255, "brigade": null, "Link": null }, "geometry": { "type": "Point", "coordinates": [ -100.626168255397886, 40.205593688002729 ] } }
,
{ "type": "Feature", "id": 231, "properties": { "NAME": "Norfolk", "LATITUDE": 42.028712381, "LONGITUDE": -97.433598268400004, "brigade": null, "Link": null }, "geometry": { "type": "Point", "coordinates": [ -97.433598268405959, 42.028712381043874 ] } }
,
{ "type": "Feature", "id": 232, "properties": { "NAME": "North Platte", "LATITUDE": 41.136286233600003, "LONGITUDE": -100.770500531, "brigade": null, "Link": null }, "geometry": { "type": "Point", "coordinates": [ -100.770500530789164, 41.136286233579519 ] } }
,
{ "type": "Feature", "id": 233, "properties": { "NAME": "Sidney", "LATITUDE": 41.139800231, "LONGITUDE": -102.978272748, "brigade": null, "Link": null }, "geometry": { "type": "Point", "coordinates": [ -102.978272747594772, 41.139800230975354 ] } }
,
{ "type": "Feature", "id": 234, "properties": { "NAME": "Scottsbluff", "LATITUDE": 41.867507750500003, "LONGITUDE": -103.660685874, "brigade": null, "Link": null }, "geometry": { "type": "Point", "coordinates": [ -103.660685874225152, 41.867507750509326 ] } }
,
{ "type": "Feature", "id": 235, "properties": { "NAME": "Chadron", "LATITUDE": 42.827914244699997, "LONGITUDE": -103.003077435, "brigade": null, "Link": null }, "geometry": { "type": "Point", "coordinates": [ -103.003077435094966, 42.82791424465394 ] } }
,
{ "type": "Feature", "id": 236, "properties": { "NAME": "Bartlesville", "LATITUDE": 36.747200133299998, "LONGITUDE": -95.980586183400007, "brigade": null, "Link": null }, "geometry": { "type": "Point", "coordinates": [ -95.980586183439272, 36.747200133301412 ] } }
,
{ "type": "Feature", "id": 237, "properties": { "NAME": "Enid", "LATITUDE": 36.3955420116, "LONGITUDE": -97.878093100800001, "brigade": null, "Link": null }, "geometry": { "type": "Point", "coordinates": [ -97.878093100764545, 36.395542011555271 ] } }
,
{ "type": "Feature", "id": 238, "properties": { "NAME": "Ardmore", "LATITUDE": 34.181077696800003, "LONGITUDE": -97.129404949700003, "brigade": null, "Link": null }, "geometry": { "type": "Point", "coordinates": [ -97.129404949719856, 34.181077696767758 ] } }
,
{ "type": "Feature", "id": 239, "properties": { "NAME": "McAlester", "LATITUDE": 34.9329956248, "LONGITUDE": -95.765973960099998, "brigade": null, "Link": null }, "geometry": { "type": "Point", "coordinates": [ -95.765973960131035, 34.932995624830539 ] } }
,
{ "type": "Feature", "id": 240, "properties": { "NAME": "Stillwater", "LATITUDE": 36.135351175, "LONGITUDE": -97.0682975685, "brigade": null, "Link": null }, "geometry": { "type": "Point", "coordinates": [ -97.068297568534675, 36.135351174965642 ] } }
,
{ "type": "Feature", "id": 241, "properties": { "NAME": "Lawton", "LATITUDE": 34.599036681100003, "LONGITUDE": -98.409972780100006, "brigade": null, "Link": null }, "geometry": { "type": "Point", "coordinates": [ -98.409972780128626, 34.599036681144469 ] } }
,
{ "type": "Feature", "id": 242, "properties": { "NAME": "Norman", "LATITUDE": 35.227913023900001, "LONGITUDE": -97.344146364099998, "brigade": null, "Link": null }, "geometry": { "type": "Point", "coordinates": [ -97.344146364108752, 35.227913023920443 ] } }
,
{ "type": "Feature", "id": 243, "properties": { "NAME": "Muskogee", "LATITUDE": 35.748217182499999, "LONGITUDE": -95.3694348569, "brigade": null, "Link": null }, "geometry": { "type": "Point", "coordinates": [ -95.369434856939421, 35.748217182451022 ] } }
,
{ "type": "Feature", "id": 244, "properties": { "NAME": "Ponca City", "LATITUDE": 36.707357604, "LONGITUDE": -97.085273276500004, "brigade": null, "Link": null }, "geometry": { "type": "Point", "coordinates": [ -97.085273276542594, 36.707357604004464 ] } }
,
{ "type": "Feature", "id": 245, "properties": { "NAME": "Shawnee", "LATITUDE": 35.342789732900002, "LONGITUDE": -96.933783815300004, "brigade": null, "Link": null }, "geometry": { "type": "Point", "coordinates": [ -96.933783815278915, 35.342789732905317 ] } }
,
{ "type": "Feature", "id": 246, "properties": { "NAME": "Woodward", "LATITUDE": 36.433420836400003, "LONGITUDE": -99.397690268700003, "brigade": null, "Link": null }, "geometry": { "type": "Point", "coordinates": [ -99.397690268739339, 36.43342083642527 ] } }
,
{ "type": "Feature", "id": 247, "properties": { "NAME": "Guymon", "LATITUDE": 36.685808531699998, "LONGITUDE": -101.479501182, "brigade": null, "Link": null }, "geometry": { "type": "Point", "coordinates": [ -101.479501181833612, 36.685808531738708 ] } }
,
{ "type": "Feature", "id": 248, "properties": { "NAME": "Lead", "LATITUDE": 44.350844542499999, "LONGITUDE": -103.765769899, "brigade": null, "Link": null }, "geometry": { "type": "Point", "coordinates": [ -103.765769899290731, 44.350844542511602 ] } }
,
{ "type": "Feature", "id": 249, "properties": { "NAME": "Yankton", "LATITUDE": 42.882019469299998, "LONGITUDE": -97.392489666499998, "brigade": null, "Link": null }, "geometry": { "type": "Point", "coordinates": [ -97.392489666517704, 42.882019469263447 ] } }
,
{ "type": "Feature", "id": 250, "properties": { "NAME": "Brookings", "LATITUDE": 44.3067645458, "LONGITUDE": -96.788030438, "brigade": null, "Link": null }, "geometry": { "type": "Point", "coordinates": [ -96.788030437999765, 44.306764545766605 ] } }
,
{ "type": "Feature", "id": 251, "properties": { "NAME": "Mitchell", "LATITUDE": 43.7142942495, "LONGITUDE": -98.026197755699997, "brigade": null, "Link": null }, "geometry": { "type": "Point", "coordinates": [ -98.026197755713, 43.714294249540316 ] } }
,
{ "type": "Feature", "id": 252, "properties": { "NAME": "Aberdeen", "LATITUDE": 45.465117613799997, "LONGITUDE": -98.486402223499994, "brigade": null, "Link": null }, "geometry": { "type": "Point", "coordinates": [ -98.486402223488327, 45.465117613805084 ] } }
,
{ "type": "Feature", "id": 253, "properties": { "NAME": "Mobridge", "LATITUDE": 45.540125955299999, "LONGITUDE": -100.434707074, "brigade": null, "Link": null }, "geometry": { "type": "Point", "coordinates": [ -100.434707073756499, 45.540125955276764 ] } }
,
{ "type": "Feature", "id": 254, "properties": { "NAME": "Rapid City", "LATITUDE": 44.0805509634, "LONGITUDE": -103.23055709, "brigade": null, "Link": null }, "geometry": { "type": "Point", "coordinates": [ -103.230557090043703, 44.080550963409003 ] } }
,
{ "type": "Feature", "id": 255, "properties": { "NAME": "Slidell", "LATITUDE": 30.274959532699999, "LONGITUDE": -89.781093792500002, "brigade": null, "Link": null }, "geometry": { "type": "Point", "coordinates": [ -89.781093792463892, 30.274959532689657 ] } }
,
{ "type": "Feature", "id": 256, "properties": { "NAME": "Lake Charles", "LATITUDE": 30.2263836863, "LONGITUDE": -93.217188966600006, "brigade": null, "Link": null }, "geometry": { "type": "Point", "coordinates": [ -93.217188966631241, 30.226383686335268 ] } }
,
{ "type": "Feature", "id": 257, "properties": { "NAME": "Metairie", "LATITUDE": 29.9838661896, "LONGITUDE": -90.152776531699999, "brigade": null, "Link": null }, "geometry": { "type": "Point", "coordinates": [ -90.152776531723163, 29.983866189589492 ] } }
,
{ "type": "Feature", "id": 258, "properties": { "NAME": "New Iberia", "LATITUDE": 30.003580748499999, "LONGITUDE": -91.818307944500006, "brigade": null, "Link": null }, "geometry": { "type": "Point", "coordinates": [ -91.818307944490314, 30.003580748508902 ] } }
,
{ "type": "Feature", "id": 259, "properties": { "NAME": "Houma", "LATITUDE": 29.5959312124, "LONGITUDE": -90.719486126500001, "brigade": null, "Link": null }, "geometry": { "type": "Point", "coordinates": [ -90.719486126451983, 29.59593121237446 ] } }
,
{ "type": "Feature", "id": 260, "properties": { "NAME": "Monroe", "LATITUDE": 32.509603494300002, "LONGITUDE": -92.119193971499996, "brigade": null, "Link": null }, "geometry": { "type": "Point", "coordinates": [ -92.119193971509617, 32.509603494287148 ] } }
,
{ "type": "Feature", "id": 261, "properties": { "NAME": "Lafayette", "LATITUDE": 30.199977029399999, "LONGITUDE": -92.019949383300002, "brigade": null, "Link": null }, "geometry": { "type": "Point", "coordinates": [ -92.019949383293195, 30.19997702943418 ] } }
,
{ "type": "Feature", "id": 262, "properties": { "NAME": "Galveston", "LATITUDE": 29.3011430044, "LONGITUDE": -94.797480104300007, "brigade": null, "Link": null }, "geometry": { "type": "Point", "coordinates": [ -94.797480104332891, 29.301143004365464 ] } }
,
{ "type": "Feature", "id": 263, "properties": { "NAME": "Bryan", "LATITUDE": 30.674185810400001, "LONGITUDE": -96.369683880400004, "brigade": null, "Link": null }, "geometry": { "type": "Point", "coordinates": [ -96.369683880380833, 30.67418581036042 ] } }
,
{ "type": "Feature", "id": 264, "properties": { "NAME": "San Marcos", "LATITUDE": 29.883071308400002, "LONGITUDE": -97.941112509899995, "brigade": null, "Link": null }, "geometry": { "type": "Point", "coordinates": [ -97.94111250994446, 29.883071308404169 ] } }
,
{ "type": "Feature", "id": 265, "properties": { "NAME": "Longview", "LATITUDE": 32.500534280399997, "LONGITUDE": -94.740274293799999, "brigade": null, "Link": null }, "geometry": { "type": "Point", "coordinates": [ -94.740274293785731, 32.500534280419913 ] } }
,
{ "type": "Feature", "id": 266, "properties": { "NAME": "McAllen", "LATITUDE": 26.2030375356, "LONGITUDE": -98.229725384299996, "brigade": null, "Link": null }, "geometry": { "type": "Point", "coordinates": [ -98.229725384294582, 26.20303753560313 ] } }
,
{ "type": "Feature", "id": 267, "properties": { "NAME": "Harlingen", "LATITUDE": 26.1975598338, "LONGITUDE": -97.690197593, "brigade": null, "Link": null }, "geometry": { "type": "Point", "coordinates": [ -97.690197592951293, 26.197559833780122 ] } }
,
{ "type": "Feature", "id": 268, "properties": { "NAME": "Alice", "LATITUDE": 27.750462462400002, "LONGITUDE": -98.070484458199999, "brigade": null, "Link": null }, "geometry": { "type": "Point", "coordinates": [ -98.070484458187138, 27.75046246236694 ] } }
,
{ "type": "Feature", "id": 269, "properties": { "NAME": "New Braunfels", "LATITUDE": 29.697811298600001, "LONGITUDE": -98.126320843299993, "brigade": null, "Link": null }, "geometry": { "type": "Point", "coordinates": [ -98.126320843278577, 29.69781129863782 ] } }
,
{ "type": "Feature", "id": 270, "properties": { "NAME": "Cleburne", "LATITUDE": 32.351525287900003, "LONGITUDE": -97.392489666499998, "brigade": null, "Link": null }, "geometry": { "type": "Point", "coordinates": [ -97.392489666517704, 32.351525287906313 ] } }
,
{ "type": "Feature", "id": 271, "properties": { "NAME": "Brownwood", "LATITUDE": 31.707895323700001, "LONGITUDE": -98.982315106, "brigade": null, "Link": null }, "geometry": { "type": "Point", "coordinates": [ -98.982315105977207, 31.707895323711 ] } }
,
{ "type": "Feature", "id": 272, "properties": { "NAME": "Alpine", "LATITUDE": 30.360716572099999, "LONGITUDE": -103.665000856, "brigade": null, "Link": null }, "geometry": { "type": "Point", "coordinates": [ -103.66500085632147, 30.360716572077987 ] } }
,
{ "type": "Feature", "id": 273, "properties": { "NAME": "Van Horn", "LATITUDE": 31.0424837433, "LONGITUDE": -104.832242271, "brigade": null, "Link": null }, "geometry": { "type": "Point", "coordinates": [ -104.832242270714204, 31.042483743304611 ] } }
,
{ "type": "Feature", "id": 274, "properties": { "NAME": "Big Spring", "LATITUDE": 32.243185647600001, "LONGITUDE": -101.4751862, "brigade": null, "Link": null }, "geometry": { "type": "Point", "coordinates": [ -101.475186199737166, 32.243185647606417 ] } }
,
{ "type": "Feature", "id": 275, "properties": { "NAME": "Vernon", "LATITUDE": 34.151053689599998, "LONGITUDE": -99.290384157099993, "brigade": null, "Link": null }, "geometry": { "type": "Point", "coordinates": [ -99.290384157085285, 34.151053689606066 ] } }
,
{ "type": "Feature", "id": 276, "properties": { "NAME": "Childress", "LATITUDE": 34.424887104299998, "LONGITUDE": -100.213919517, "brigade": null, "Link": null }, "geometry": { "type": "Point", "coordinates": [ -100.213919516789502, 34.424887104320874 ] } }
,
{ "type": "Feature", "id": 277, "properties": { "NAME": "Hereford", "LATITUDE": 34.821917133600003, "LONGITUDE": -102.398592368, "brigade": null, "Link": null }, "geometry": { "type": "Point", "coordinates": [ -102.398592368360667, 34.821917133619259 ] } }
,
{ "type": "Feature", "id": 278, "properties": { "NAME": "Dalhart", "LATITUDE": 36.060807921399999, "LONGITUDE": -102.518610882, "brigade": null, "Link": null }, "geometry": { "type": "Point", "coordinates": [ -102.518610882358544, 36.060807921384658 ] } }
,
{ "type": "Feature", "id": 279, "properties": { "NAME": "Texas City", "LATITUDE": 29.410877908300002, "LONGITUDE": -94.962767173, "brigade": null, "Link": null }, "geometry": { "type": "Point", "coordinates": [ -94.962767173018449, 29.410877908337294 ] } }
,
{ "type": "Feature", "id": 280, "properties": { "NAME": "Pasadena", "LATITUDE": 29.6608626495, "LONGITUDE": -95.147742962400002, "brigade": null, "Link": null }, "geometry": { "type": "Point", "coordinates": [ -95.147742962407293, 29.660862649549184 ] } }
,
{ "type": "Feature", "id": 281, "properties": { "NAME": "Baytown", "LATITUDE": 29.755843932099999, "LONGITUDE": -94.967728110500005, "brigade": null, "Link": null }, "geometry": { "type": "Point", "coordinates": [ -94.967728110518465, 29.755843932101655 ] } }
,
{ "type": "Feature", "id": 282, "properties": { "NAME": "Grand Prairie", "LATITUDE": 32.684760761500002, "LONGITUDE": -97.020238486500006, "brigade": null, "Link": null }, "geometry": { "type": "Point", "coordinates": [ -97.020238486503288, 32.684760761540339 ] } }
,
{ "type": "Feature", "id": 283, "properties": { "NAME": "Conroe", "LATITUDE": 30.3120632111, "LONGITUDE": -95.455863689899999, "brigade": null, "Link": null }, "geometry": { "type": "Point", "coordinates": [ -95.455863689947492, 30.31206321107522 ] } }
,
{ "type": "Feature", "id": 284, "properties": { "NAME": "Nacogdoches", "LATITUDE": 31.6037414744, "LONGITUDE": -94.655266562700007, "brigade": null, "Link": null }, "geometry": { "type": "Point", "coordinates": [ -94.655266562665716, 31.603741474426627 ] } }
,
{ "type": "Feature", "id": 285, "properties": { "NAME": "Eagle Pass", "LATITUDE": 28.711023985800001, "LONGITUDE": -100.489277386, "brigade": null, "Link": null }, "geometry": { "type": "Point", "coordinates": [ -100.489277386256745, 28.7110239858083 ] } }
,
{ "type": "Feature", "id": 286, "properties": { "NAME": "Edinburg", "LATITUDE": 26.303186461399999, "LONGITUDE": -98.159962200699994, "brigade": null, "Link": null }, "geometry": { "type": "Point", "coordinates": [ -98.159962200700491, 26.303186461384602 ] } }
,
{ "type": "Feature", "id": 287, "properties": { "NAME": "Kingsville", "LATITUDE": 27.5159548126, "LONGITUDE": -97.855846396700002, "brigade": null, "Link": null }, "geometry": { "type": "Point", "coordinates": [ -97.855846396662827, 27.515954812626365 ] } }
,
{ "type": "Feature", "id": 288, "properties": { "NAME": "Port Arthur", "LATITUDE": 29.898987649599999, "LONGITUDE": -93.928592571799996, "brigade": null, "Link": null }, "geometry": { "type": "Point", "coordinates": [ -93.928592571777244, 29.898987649550179 ] } }
,
{ "type": "Feature", "id": 289, "properties": { "NAME": "Huntsville", "LATITUDE": 30.723769347099999, "LONGITUDE": -95.5505865903, "brigade": null, "Link": null }, "geometry": { "type": "Point", "coordinates": [ -95.550586590338483, 30.723769347144533 ] } }
,
{ "type": "Feature", "id": 290, "properties": { "NAME": "Killeen", "LATITUDE": 31.117285379, "LONGITUDE": -97.727482138799999, "brigade": null, "Link": null }, "geometry": { "type": "Point", "coordinates": [ -97.727482138849808, 31.117285379047132 ] } }
,
{ "type": "Feature", "id": 291, "properties": { "NAME": "Lufkin", "LATITUDE": 31.338434671, "LONGITUDE": -94.728879640499997, "brigade": null, "Link": null }, "geometry": { "type": "Point", "coordinates": [ -94.728879640465451, 31.338434671040261 ] } }
,
{ "type": "Feature", "id": 292, "properties": { "NAME": "Del Rio", "LATITUDE": 29.362948017400001, "LONGITUDE": -100.89638432, "brigade": null, "Link": null }, "geometry": { "type": "Point", "coordinates": [ -100.896384319852146, 29.362948017386536 ] } }
,
{ "type": "Feature", "id": 293, "properties": { "NAME": "San Angelo", "LATITUDE": 31.464008401499999, "LONGITUDE": -100.436696616, "brigade": null, "Link": null }, "geometry": { "type": "Point", "coordinates": [ -100.4366966163998, 31.464008401509556 ] } }
,
{ "type": "Feature", "id": 294, "properties": { "NAME": "Sherman", "LATITUDE": 33.635994689, "LONGITUDE": -96.608584026900004, "brigade": null, "Link": null }, "geometry": { "type": "Point", "coordinates": [ -96.608584026866197, 33.635994688953126 ] } }
,
{ "type": "Feature", "id": 295, "properties": { "NAME": "Beaumont", "LATITUDE": 30.086263040199999, "LONGITUDE": -94.101682781700006, "brigade": null, "Link": null }, "geometry": { "type": "Point", "coordinates": [ -94.101682781738987, 30.086263040175883 ] } }
,
{ "type": "Feature", "id": 296, "properties": { "NAME": "Bay City", "LATITUDE": 28.981110859200001, "LONGITUDE": -95.964359783700004, "brigade": null, "Link": null }, "geometry": { "type": "Point", "coordinates": [ -95.96435978369955, 28.981110859181801 ] } }
,
{ "type": "Feature", "id": 297, "properties": { "NAME": "Port Lavaca", "LATITUDE": 28.616016865, "LONGITUDE": -96.629693849500001, "brigade": null, "Link": null }, "geometry": { "type": "Point", "coordinates": [ -96.629693849457425, 28.616016865039843 ] } }
,
{ "type": "Feature", "id": 298, "properties": { "NAME": "Falfurrias", "LATITUDE": 27.226902688599999, "LONGITUDE": -98.144898520699996, "brigade": null, "Link": null }, "geometry": { "type": "Point", "coordinates": [ -98.144898520687448, 27.226902688601971 ] } }
,
{ "type": "Feature", "id": 299, "properties": { "NAME": "Beeville", "LATITUDE": 28.405978006, "LONGITUDE": -97.750839886199998, "brigade": null, "Link": null }, "geometry": { "type": "Point", "coordinates": [ -97.750839886245799, 28.405978005989432 ] } }
,
{ "type": "Feature", "id": 300, "properties": { "NAME": "Fort Stockton", "LATITUDE": 30.891691913900001, "LONGITUDE": -102.884996787, "brigade": null, "Link": null }, "geometry": { "type": "Point", "coordinates": [ -102.884996787308026, 30.891691913876965 ] } }
,
{ "type": "Feature", "id": 301, "properties": { "NAME": "Pecos", "LATITUDE": 31.415794290200001, "LONGITUDE": -103.499894655, "brigade": null, "Link": null }, "geometry": { "type": "Point", "coordinates": [ -103.499894655148935, 31.415794290181065 ] } }
,
{ "type": "Feature", "id": 302, "properties": { "NAME": "Dumas", "LATITUDE": 35.862396259599997, "LONGITUDE": -101.966887453, "brigade": null, "Link": null }, "geometry": { "type": "Point", "coordinates": [ -101.96688745299447, 35.862396259600011 ] } }
,
{ "type": "Feature", "id": 303, "properties": { "NAME": "Denton", "LATITUDE": 33.2157619416, "LONGITUDE": -97.128836509, "brigade": null, "Link": null }, "geometry": { "type": "Point", "coordinates": [ -97.128836508964596, 33.215761941555506 ] } }
,
{ "type": "Feature", "id": 304, "properties": { "NAME": "Midland", "LATITUDE": 32.030717996200003, "LONGITUDE": -102.097499636, "brigade": null, "Link": null }, "geometry": { "type": "Point", "coordinates": [ -102.097499635612195, 32.030717996238366 ] } }
,
{ "type": "Feature", "id": 305, "properties": { "NAME": "Temple", "LATITUDE": 31.102092508, "LONGITUDE": -97.363008261900006, "brigade": null, "Link": null }, "geometry": { "type": "Point", "coordinates": [ -97.36300826189526, 31.102092507953323 ] } }
,
{ "type": "Feature", "id": 306, "properties": { "NAME": "Freeport", "LATITUDE": 28.959484272299999, "LONGITUDE": -95.356877483900007, "brigade": null, "Link": null }, "geometry": { "type": "Point", "coordinates": [ -95.356877483892333, 28.959484272267797 ] } }
,
{ "type": "Feature", "id": 307, "properties": { "NAME": "Victoria", "LATITUDE": 28.8049975779, "LONGITUDE": -97.003340293099996, "brigade": null, "Link": null }, "geometry": { "type": "Point", "coordinates": [ -97.00334029314385, 28.804997577931125 ] } }
,
{ "type": "Feature", "id": 308, "properties": { "NAME": "Odessa", "LATITUDE": 31.845561339300001, "LONGITUDE": -102.367224774, "brigade": null, "Link": null }, "geometry": { "type": "Point", "coordinates": [ -102.367224773959634, 31.845561339336605 ] } }
,
{ "type": "Feature", "id": 309, "properties": { "NAME": "Wichita Falls", "LATITUDE": 33.913626321400002, "LONGITUDE": -98.493068483299993, "brigade": null, "Link": null }, "geometry": { "type": "Point", "coordinates": [ -98.493068483253936, 33.913626321441136 ] } }
,
{ "type": "Feature", "id": 310, "properties": { "NAME": "Waco", "LATITUDE": 31.549171161899999, "LONGITUDE": -97.146380657700007, "brigade": null, "Link": null }, "geometry": { "type": "Point", "coordinates": [ -97.146380657727676, 31.54917116192653 ] } }
,
{ "type": "Feature", "id": 311, "properties": { "NAME": "Lubbock", "LATITUDE": 33.580003274600003, "LONGITUDE": -101.879967694, "brigade": null, "Link": null }, "geometry": { "type": "Point", "coordinates": [ -101.879967693879507, 33.580003274564767 ] } }
,
{ "type": "Feature", "id": 312, "properties": { "NAME": "Guasdualito", "LATITUDE": 7.23998313286, "LONGITUDE": -70.7399821387, "brigade": null, "Link": null }, "geometry": { "type": "Point", "coordinates": [ -70.73998213874188, 7.239983132857956 ] } }
,
{ "type": "Feature", "id": 313, "properties": { "NAME": "San Fernando de Apure", "LATITUDE": 7.89999452609, "LONGITUDE": -67.469949179699995, "brigade": null, "Link": null }, "geometry": { "type": "Point", "coordinates": [ -67.469949179744404, 7.89999452608959 ] } }
,
{ "type": "Feature", "id": 314, "properties": { "NAME": "Barinas", "LATITUDE": 8.599977639700001, "LONGITUDE": -70.250012046, "brigade": null, "Link": null }, "geometry": { "type": "Point", "coordinates": [ -70.2500120459664, 8.599977639699325 ] } }
,
{ "type": "Feature", "id": 315, "properties": { "NAME": "Valera", "LATITUDE": 9.31995953261, "LONGITUDE": -70.620015301199999, "brigade": null, "Link": null }, "geometry": { "type": "Point", "coordinates": [ -70.620015301176309, 9.319959532605823 ] } }
,
{ "type": "Feature", "id": 316, "properties": { "NAME": "Trujillo", "LATITUDE": 9.38039512017, "LONGITUDE": -70.440000449300001, "brigade": null, "Link": null }, "geometry": { "type": "Point", "coordinates": [ -70.440000449287595, 9.380395120171164 ] } }
,
{ "type": "Feature", "id": 317, "properties": { "NAME": "Cabimas", "LATITUDE": 10.429995136500001, "LONGITUDE": -71.4499904802, "brigade": null, "Link": null }, "geometry": { "type": "Point", "coordinates": [ -71.44999048021613, 10.429995136451437 ] } }
,
{ "type": "Feature", "id": 318, "properties": { "NAME": "Santa Rita", "LATITUDE": 10.5318269766, "LONGITUDE": -71.503949023, "brigade": null, "Link": null }, "geometry": { "type": "Point", "coordinates": [ -71.503949022952966, 10.531826976613448 ] } }
,
{ "type": "Feature", "id": 319, "properties": { "NAME": "Machiques", "LATITUDE": 10.0704305206, "LONGITUDE": -72.549949179799995, "brigade": null, "Link": null }, "geometry": { "type": "Point", "coordinates": [ -72.549949179764795, 10.070430520564519 ] } }
,
{ "type": "Feature", "id": 320, "properties": { "NAME": "San Carlos del Zulia", "LATITUDE": 9.010391864960001, "LONGITUDE": -71.9199876319, "brigade": null, "Link": null }, "geometry": { "type": "Point", "coordinates": [ -71.919987631910672, 9.010391864961317 ] } }
,
{ "type": "Feature", "id": 321, "properties": { "NAME": "Puerto Cabello", "LATITUDE": 10.4704319447, "LONGITUDE": -68.170009808, "brigade": null, "Link": null }, "geometry": { "type": "Point", "coordinates": [ -68.170009808002433, 10.470431944719849 ] } }
,
{ "type": "Feature", "id": 322, "properties": { "NAME": "Carora", "LATITUDE": 10.1899839467, "LONGITUDE": -70.079996583699995, "brigade": null, "Link": null }, "geometry": { "type": "Point", "coordinates": [ -70.07999658372627, 10.189983946671706 ] } }
,
{ "type": "Feature", "id": 323, "properties": { "NAME": "Barquisimeto", "LATITUDE": 10.049992491599999, "LONGITUDE": -69.299966676500006, "brigade": null, "Link": null }, "geometry": { "type": "Point", "coordinates": [ -69.301912535109409, 10.051938350206006 ] } }
,
{ "type": "Feature", "id": 324, "properties": { "NAME": "Guanare", "LATITUDE": 9.0499760121, "LONGITUDE": -69.7500167253, "brigade": null, "Link": null }, "geometry": { "type": "Point", "coordinates": [ -69.750016725326418, 9.049976012096913 ] } }
,
{ "type": "Feature", "id": 325, "properties": { "NAME": "Acarigua", "LATITUDE": 9.580382913139999, "LONGITUDE": -69.200024456400001, "brigade": null, "Link": null }, "geometry": { "type": "Point", "coordinates": [ -69.200024456444069, 9.580382913140632 ] } }
,
{ "type": "Feature", "id": 326, "properties": { "NAME": "New London", "LATITUDE": 41.355523497599997, "LONGITUDE": -72.100028322, "brigade": null, "Link": null }, "geometry": { "type": "Point", "coordinates": [ -72.100028322015604, 41.355523497577728 ] } }
,
{ "type": "Feature", "id": 327, "properties": { "NAME": "Stamford", "LATITUDE": 41.0533455598, "LONGITUDE": -73.539191123099997, "brigade": null, "Link": null }, "geometry": { "type": "Point", "coordinates": [ -73.539191123128049, 41.05334555975098 ] } }
,
{ "type": "Feature", "id": 328, "properties": { "NAME": "Waterbury", "LATITUDE": 41.550007750500001, "LONGITUDE": -73.050022015099998, "brigade": null, "Link": null }, "geometry": { "type": "Point", "coordinates": [ -73.050022015053244, 41.550007750508215 ] } }
,
{ "type": "Feature", "id": 329, "properties": { "NAME": "Bridgeport", "LATITUDE": 41.179978657100001, "LONGITUDE": -73.199961183300005, "brigade": null, "Link": null }, "geometry": { "type": "Point", "coordinates": [ -73.201907041961093, 41.181924515695286 ] } }
,
{ "type": "Feature", "id": 330, "properties": { "NAME": "New Haven", "LATITUDE": 41.330382913299999, "LONGITUDE": -72.900005332099994, "brigade": null, "Link": null }, "geometry": { "type": "Point", "coordinates": [ -72.90000533210987, 41.330382913267727 ] } }
,
{ "type": "Feature", "id": 331, "properties": { "NAME": "Hartford", "LATITUDE": 41.770020161, "LONGITUDE": -72.679967083400001, "brigade": null, "Link": null }, "geometry": { "type": "Point", "coordinates": [ -72.681912942024056, 41.771966019603731 ] } }
,
{ "type": "Feature", "id": 332, "properties": { "NAME": "New Bedford", "LATITUDE": 41.656125304200003, "LONGITUDE": -70.944698325299996, "brigade": null, "Link": null }, "geometry": { "type": "Point", "coordinates": [ -70.944698325266145, 41.656125304219586 ] } }
,
{ "type": "Feature", "id": 333, "properties": { "NAME": "Springfield", "LATITUDE": 42.120024636899998, "LONGITUDE": -72.579999025099994, "brigade": null, "Link": null }, "geometry": { "type": "Point", "coordinates": [ -72.579999025142413, 42.12002463690375 ] } }
,
{ "type": "Feature", "id": 334, "properties": { "NAME": "Salem", "LATITUDE": 42.522498903500001, "LONGITUDE": -70.883091745800002, "brigade": null, "Link": null }, "geometry": { "type": "Point", "coordinates": [ -70.883091745775928, 42.522498903477697 ] } }
,
{ "type": "Feature", "id": 335, "properties": { "NAME": "Pittsfield", "LATITUDE": 42.448195820199999, "LONGITUDE": -73.259828330199994, "brigade": null, "Link": null }, "geometry": { "type": "Point", "coordinates": [ -73.259828330158271, 42.44819582017324 ] } }
,
{ "type": "Feature", "id": 336, "properties": { "NAME": "Lowell", "LATITUDE": 42.6336883739, "LONGITUDE": -71.3166911231, "brigade": null, "Link": null }, "geometry": { "type": "Point", "coordinates": [ -71.316691123119213, 42.633688373884929 ] } }
,
{ "type": "Feature", "id": 337, "properties": { "NAME": "Worcester", "LATITUDE": 42.270428893099997, "LONGITUDE": -71.800020794299996, "brigade": null, "Link": null }, "geometry": { "type": "Point", "coordinates": [ -71.800020794345087, 42.27042889308921 ] } }
,
{ "type": "Feature", "id": 338, "properties": { "NAME": "Manchester", "LATITUDE": 42.9959918407, "LONGITUDE": -71.455287314499998, "brigade": null, "Link": null }, "geometry": { "type": "Point", "coordinates": [ -71.455287314526018, 42.99599184068326 ] } }
,
{ "type": "Feature", "id": 339, "properties": { "NAME": "Newport", "LATITUDE": 41.490398985900001, "LONGITUDE": -71.3133579932, "brigade": null, "Link": null }, "geometry": { "type": "Point", "coordinates": [ -71.313357993236437, 41.4903989858595 ] } }
,
{ "type": "Feature", "id": 340, "properties": { "NAME": "Providence", "LATITUDE": 41.821102314299999, "LONGITUDE": -71.414979697299998, "brigade": null, "Link": null }, "geometry": { "type": "Point", "coordinates": [ -71.416925555951195, 41.823048172924366 ] } }
,
{ "type": "Feature", "id": 341, "properties": { "NAME": "Montpelier", "LATITUDE": 44.2599715363, "LONGITUDE": -72.575813234099996, "brigade": null, "Link": null }, "geometry": { "type": "Point", "coordinates": [ -72.575813234126827, 44.259971536326248 ] } }
,
{ "type": "Feature", "id": 342, "properties": { "NAME": "Auburn", "LATITUDE": 32.609700743600001, "LONGITUDE": -85.480839479300002, "brigade": null, "Link": null }, "geometry": { "type": "Point", "coordinates": [ -85.480839479295639, 32.609700743636438 ] } }
,
{ "type": "Feature", "id": 343, "properties": { "NAME": "Florence", "LATITUDE": 34.7996962677, "LONGITUDE": -87.677242881, "brigade": null, "Link": null }, "geometry": { "type": "Point", "coordinates": [ -87.677242880997142, 34.799696267733779 ] } }
,
{ "type": "Feature", "id": 344, "properties": { "NAME": "Dothan", "LATITUDE": 31.223454609200001, "LONGITUDE": -85.390586590300003, "brigade": null, "Link": null }, "geometry": { "type": "Point", "coordinates": [ -85.390586590297872, 31.223454609190885 ] } }
,
{ "type": "Feature", "id": 345, "properties": { "NAME": "Tuscaloosa", "LATITUDE": 33.225115375800002, "LONGITUDE": -87.544176067799995, "brigade": null, "Link": null }, "geometry": { "type": "Point", "coordinates": [ -87.544176067845598, 33.225115375800385 ] } }
,
{ "type": "Feature", "id": 346, "properties": { "NAME": "Gadsden", "LATITUDE": 34.014550393699999, "LONGITUDE": -86.006647177900007, "brigade": null, "Link": null }, "geometry": { "type": "Point", "coordinates": [ -86.006647177865489, 34.014550393707211 ] } }
,
{ "type": "Feature", "id": 347, "properties": { "NAME": "Enterprise", "LATITUDE": 31.3278151642, "LONGITUDE": -85.8439956072, "brigade": null, "Link": null }, "geometry": { "type": "Point", "coordinates": [ -85.84399560722683, 31.32781516420426 ] } }
,
{ "type": "Feature", "id": 348, "properties": { "NAME": "Selma", "LATITUDE": 32.407568378699999, "LONGITUDE": -87.021158896599999, "brigade": null, "Link": null }, "geometry": { "type": "Point", "coordinates": [ -87.021158896619511, 32.407568378726886 ] } }
,
{ "type": "Feature", "id": 349, "properties": { "NAME": "Birmingham", "LATITUDE": 33.530006326299997, "LONGITUDE": -86.824995159599993, "brigade": null, "Link": null }, "geometry": { "type": "Point", "coordinates": [ -86.82499515963957, 33.530006326322507 ] } }
,
{ "type": "Feature", "id": 350, "properties": { "NAME": "Mobile", "LATITUDE": 30.6800252472, "LONGITUDE": -88.049984987100004, "brigade": null, "Link": null }, "geometry": { "type": "Point", "coordinates": [ -88.049984987118449, 30.680025247209461 ] } }
,
{ "type": "Feature", "id": 351, "properties": { "NAME": "Winter Haven", "LATITUDE": 28.021918761199998, "LONGITUDE": -81.733006227299995, "brigade": null, "Link": null }, "geometry": { "type": "Point", "coordinates": [ -81.733006227327465, 28.021918761196339 ] } }
,
{ "type": "Feature", "id": 352, "properties": { "NAME": "Melbourne", "LATITUDE": 28.083310362799999, "LONGITUDE": -80.608320354900002, "brigade": null, "Link": null }, "geometry": { "type": "Point", "coordinates": [ -80.60832035492723, 28.083310362759047 ] } }
,
{ "type": "Feature", "id": 353, "properties": { "NAME": "Homestead", "LATITUDE": 25.468302021300001, "LONGITUDE": -80.477785687, "brigade": null, "Link": null }, "geometry": { "type": "Point", "coordinates": [ -80.477785686957944, 25.468302021277108 ] } }
,
{ "type": "Feature", "id": 354, "properties": { "NAME": "Sanford", "LATITUDE": 28.789959736099998, "LONGITUDE": -81.2799847836, "brigade": null, "Link": null }, "geometry": { "type": "Point", "coordinates": [ -81.279984783640842, 28.789959736134119 ] } }
,
{ "type": "Feature", "id": 355, "properties": { "NAME": "Miami Beach", "LATITUDE": 25.8099195339, "LONGITUDE": -80.131781105200005, "brigade": null, "Link": null }, "geometry": { "type": "Point", "coordinates": [ -80.131781105166397, 25.809919533946807 ] } }
,
{ "type": "Feature", "id": 356, "properties": { "NAME": "Coral Springs", "LATITUDE": 26.270837014800001, "LONGITUDE": -80.270821575599996, "brigade": null, "Link": null }, "geometry": { "type": "Point", "coordinates": [ -80.270821575629, 26.270837014769995 ] } }
,
{ "type": "Feature", "id": 357, "properties": { "NAME": "Port Charlotte", "LATITUDE": 27.0000431508, "LONGITUDE": -82.105696657, "brigade": null, "Link": null }, "geometry": { "type": "Point", "coordinates": [ -82.105696657016551, 27.000043150840661 ] } }
,
{ "type": "Feature", "id": 358, "properties": { "NAME": "Spring Hill", "LATITUDE": 28.478945128399999, "LONGITUDE": -82.547711020600005, "brigade": null, "Link": null }, "geometry": { "type": "Point", "coordinates": [ -82.547711020625073, 28.478945128385593 ] } }
,
{ "type": "Feature", "id": 359, "properties": { "NAME": "Palm Coast", "LATITUDE": 29.5380019318, "LONGITUDE": -81.223295737399994, "brigade": null, "Link": null }, "geometry": { "type": "Point", "coordinates": [ -81.22329573741662, 29.538001931775177 ] } }
,
{ "type": "Feature", "id": 360, "properties": { "NAME": "Palatka", "LATITUDE": 29.6476851593, "LONGITUDE": -81.6513057879, "brigade": null, "Link": null }, "geometry": { "type": "Point", "coordinates": [ -81.651305787874051, 29.647685159314729 ] } }
,
{ "type": "Feature", "id": 361, "properties": { "NAME": "Leesburg", "LATITUDE": 28.810501118, "LONGITUDE": -81.883332968900007, "brigade": null, "Link": null }, "geometry": { "type": "Point", "coordinates": [ -81.883332968864607, 28.810501117970322 ] } }
,
{ "type": "Feature", "id": 362, "properties": { "NAME": "Lake City", "LATITUDE": 30.1897192576, "LONGITUDE": -82.639746746499995, "brigade": null, "Link": null }, "geometry": { "type": "Point", "coordinates": [ -82.639746746536858, 30.189719257624219 ] } }
,
{ "type": "Feature", "id": 363, "properties": { "NAME": "Crestview", "LATITUDE": 30.754206765799999, "LONGITUDE": -86.572607464300006, "brigade": null, "Link": null }, "geometry": { "type": "Point", "coordinates": [ -86.572607464326111, 30.754206765764362 ] } }
,
{ "type": "Feature", "id": 364, "properties": { "NAME": "Panama City", "LATITUDE": 30.1586100454, "LONGITUDE": -85.655273276499997, "brigade": null, "Link": null }, "geometry": { "type": "Point", "coordinates": [ -85.655273276496814, 30.158610045384435 ] } }
,
{ "type": "Feature", "id": 365, "properties": { "NAME": "Coral Gables", "LATITUDE": 25.715418720500001, "LONGITUDE": -80.291078737099994, "brigade": null, "Link": null }, "geometry": { "type": "Point", "coordinates": [ -80.291078737087389, 25.715418720496867 ] } }
,
{ "type": "Feature", "id": 366, "properties": { "NAME": "Cape Coral", "LATITUDE": 26.602909768699998, "LONGITUDE": -81.979683676899995, "brigade": null, "Link": null }, "geometry": { "type": "Point", "coordinates": [ -81.979683676872824, 26.602909768677474 ] } }
,
{ "type": "Feature", "id": 367, "properties": { "NAME": "Naples", "LATITUDE": 26.142059345500002, "LONGITUDE": -81.794992107900001, "brigade": null, "Link": null }, "geometry": { "type": "Point", "coordinates": [ -81.794992107861617, 26.142059345498684 ] } }
,
{ "type": "Feature", "id": 368, "properties": { "NAME": "Fort Pierce", "LATITUDE": 27.446785908, "LONGITUDE": -80.325805299600006, "brigade": null, "Link": null }, "geometry": { "type": "Point", "coordinates": [ -80.325805299587557, 27.446785908003779 ] } }
,
{ "type": "Feature", "id": 369, "properties": { "NAME": "Kissimmee", "LATITUDE": 28.292057311, "LONGITUDE": -81.407780600699994, "brigade": null, "Link": null }, "geometry": { "type": "Point", "coordinates": [ -81.407780600698644, 28.29205731100199 ] } }
,
{ "type": "Feature", "id": 370, "properties": { "NAME": "Titusville", "LATITUDE": 28.6123478383, "LONGITUDE": -80.807791383600005, "brigade": null, "Link": null }, "geometry": { "type": "Point", "coordinates": [ -80.807791383573829, 28.612347838347073 ] } }
,
{ "type": "Feature", "id": 371, "properties": { "NAME": "St. Augustine", "LATITUDE": 29.894879373199998, "LONGITUDE": -81.314711346099998, "brigade": null, "Link": null }, "geometry": { "type": "Point", "coordinates": [ -81.314711346140896, 29.894879373182892 ] } }
,
{ "type": "Feature", "id": 372, "properties": { "NAME": "Ocala", "LATITUDE": 29.1873515005, "LONGITUDE": -82.140268190200004, "brigade": null, "Link": null }, "geometry": { "type": "Point", "coordinates": [ -82.1402681902198, 29.187351500458828 ] } }
,
{ "type": "Feature", "id": 373, "properties": { "NAME": "Fort Lauderdale", "LATITUDE": 26.136064879399999, "LONGITUDE": -80.141785524200003, "brigade": null, "Link": null }, "geometry": { "type": "Point", "coordinates": [ -80.141785524196067, 26.136064879352837 ] } }
,
{ "type": "Feature", "id": 374, "properties": { "NAME": "Apalachicola", "LATITUDE": 29.7256132192, "LONGITUDE": -84.992523032400001, "brigade": null, "Link": null }, "geometry": { "type": "Point", "coordinates": [ -84.992523032353589, 29.725613219210803 ] } }
,
{ "type": "Feature", "id": 375, "properties": { "NAME": "Vero Beach", "LATITUDE": 27.642252013099998, "LONGITUDE": -80.39112431, "brigade": null, "Link": null }, "geometry": { "type": "Point", "coordinates": [ -80.391124310004457, 27.64225201314785 ] } }
,
{ "type": "Feature", "id": 376, "properties": { "NAME": "Pensacola", "LATITUDE": 30.421126321399999, "LONGITUDE": -87.216935060400004, "brigade": null, "Link": null }, "geometry": { "type": "Point", "coordinates": [ -87.216935060357315, 30.421126321427153 ] } }
,
{ "type": "Feature", "id": 377, "properties": { "NAME": "St. Petersburg", "LATITUDE": 27.770538756299999, "LONGITUDE": -82.679382570100003, "brigade": null, "Link": null }, "geometry": { "type": "Point", "coordinates": [ -82.67938257010475, 27.770538756312487 ] } }
,
{ "type": "Feature", "id": 378, "properties": { "NAME": "Dalton", "LATITUDE": 34.769723937, "LONGITUDE": -84.970302166500005, "brigade": null, "Link": null }, "geometry": { "type": "Point", "coordinates": [ -84.97030216646813, 34.769723937004471 ] } }
,
{ "type": "Feature", "id": 379, "properties": { "NAME": "Marietta", "LATITUDE": 33.955613422699997, "LONGITUDE": -84.54324813, "brigade": null, "Link": null }, "geometry": { "type": "Point", "coordinates": [ -84.543248130008024, 33.955613422678361 ] } }
,
{ "type": "Feature", "id": 380, "properties": { "NAME": "Waycross", "LATITUDE": 31.213816954599999, "LONGITUDE": -82.354906251700001, "brigade": null, "Link": null }, "geometry": { "type": "Point", "coordinates": [ -82.354906251744069, 31.213816954568408 ] } }
,
{ "type": "Feature", "id": 381, "properties": { "NAME": "La Grange", "LATITUDE": 33.0364705597, "LONGITUDE": -85.031874635500003, "brigade": null, "Link": null }, "geometry": { "type": "Point", "coordinates": [ -85.031874635543858, 33.036470559718865 ] } }
,
{ "type": "Feature", "id": 382, "properties": { "NAME": "Valdosta", "LATITUDE": 30.832858295699999, "LONGITUDE": -83.278596640700002, "brigade": null, "Link": null }, "geometry": { "type": "Point", "coordinates": [ -83.278596640745107, 30.832858295712651 ] } }
,
{ "type": "Feature", "id": 383, "properties": { "NAME": "Albany", "LATITUDE": 31.5787300812, "LONGITUDE": -84.155829917099993, "brigade": null, "Link": null }, "geometry": { "type": "Point", "coordinates": [ -84.15582991711581, 31.578730081197435 ] } }
,
{ "type": "Feature", "id": 384, "properties": { "NAME": "Athens", "LATITUDE": 33.961297830200003, "LONGITUDE": -83.378022096500004, "brigade": null, "Link": null },