{
"type": "FeatureCollection",
                                                                                
"features": [
{ "type": "Feature", "id": 0, "properties": { "NAME": "Carmelo", "LATITUDE": -33.989619121499999, "LONGITUDE": -58.299992107800001, "brigade": null, "Link": null }, "geometry": { "type": "Point", "coordinates": [ -6489925.434688566252589, -4027408.212942698504776 ] } }
,
{ "type": "Feature", "id": 1, "properties": { "NAME": "San Jose de Mayo", "LATITUDE": -34.349958883900001, "LONGITUDE": -56.709985800799998, "brigade": null, "Link": null }, "geometry": { "type": "Point", "coordinates": [ -6312926.742238293401897, -4075890.312245682347566 ] } }
,
{ "type": "Feature", "id": 2, "properties": { "NAME": "Artigas", "LATITUDE": -30.415987122800001, "LONGITUDE": -56.486020143200001, "brigade": null, "Link": null }, "geometry": { "type": "Point", "coordinates": [ -6287994.999284309335053, -3557133.965287026017904 ] } }
,
{ "type": "Feature", "id": 3, "properties": { "NAME": "Baltasar Brum", "LATITUDE": -30.730024801900001, "LONGITUDE": -57.3199744076, "brigade": null, "Link": null }, "geometry": { "type": "Point", "coordinates": [ -6380830.363333993591368, -3597737.135415337514132 ] } }
,
{ "type": "Feature", "id": 4, "properties": { "NAME": "Bella Union", "LATITUDE": -30.259614238699999, "LONGITUDE": -57.599957317700003, "brigade": null, "Link": null }, "geometry": { "type": "Point", "coordinates": [ -6411997.918323527090251, -3536964.674086197745055 ] } }
,
{ "type": "Feature", "id": 5, "properties": { "NAME": "Mercedes", "LATITUDE": -33.259534486100002, "LONGITUDE": -58.029982749, "brigade": null, "Link": null }, "geometry": { "type": "Point", "coordinates": [ -6459868.130365876480937, -3929803.711542433127761 ] } }
,
{ "type": "Feature", "id": 6, "properties": { "NAME": "Melo", "LATITUDE": -32.359486064899997, "LONGITUDE": -54.179985190399996, "brigade": null, "Link": null }, "geometry": { "type": "Point", "coordinates": [ -6031288.362586154602468, -3810591.815047192852944 ] } }
,
{ "type": "Feature", "id": 7, "properties": { "NAME": "Tranqueras", "LATITUDE": -31.2000219536, "LONGITUDE": -55.749966879900001, "brigade": null, "Link": null }, "geometry": { "type": "Point", "coordinates": [ -6206057.924811544828117, -3658753.137380720116198 ] } }
,
{ "type": "Feature", "id": 8, "properties": { "NAME": "Rivera", "LATITUDE": -30.899575176199999, "LONGITUDE": -55.560004314799997, "brigade": null, "Link": null }, "geometry": { "type": "Point", "coordinates": [ -6184911.388794270344079, -3619713.924531504977494 ] } }
,
{ "type": "Feature", "id": 9, "properties": { "NAME": "Tacuarembo", "LATITUDE": -31.709964987399999, "LONGITUDE": -55.980004518199998, "brigade": null, "Link": null }, "geometry": { "type": "Point", "coordinates": [ -6231665.597575647756457, -3725298.948850826825947 ] } }
,
{ "type": "Feature", "id": 10, "properties": { "NAME": "Paso de los Toros", "LATITUDE": -32.810001201600002, "LONGITUDE": -56.5100496843, "brigade": null, "Link": null }, "geometry": { "type": "Point", "coordinates": [ -6290669.955554177053273, -3870111.870472638867795 ] } }
,
{ "type": "Feature", "id": 11, "properties": { "NAME": "Vergara", "LATITUDE": -32.929993877400001, "LONGITUDE": -53.949999228499998, "brigade": null, "Link": null }, "geometry": { "type": "Point", "coordinates": [ -6005686.442416181787848, -3886015.50375972641632 ] } }
,
{ "type": "Feature", "id": 12, "properties": { "NAME": "Treinta y Tres", "LATITUDE": -33.2300272433, "LONGITUDE": -54.3800246598, "brigade": null, "Link": null }, "geometry": { "type": "Point", "coordinates": [ -6053556.654458531178534, -3925876.186081374529749 ] } }
,
{ "type": "Feature", "id": 13, "properties": { "NAME": "Santa Lucia", "LATITUDE": -34.470003236099998, "LONGITUDE": -56.399978883499998, "brigade": null, "Link": null }, "geometry": { "type": "Point", "coordinates": [ -6278416.930059952661395, -4092087.932665697764605 ] } }
,
{ "type": "Feature", "id": 14, "properties": { "NAME": "Jose Batlle y Ordonez", "LATITUDE": -33.470012594799996, "LONGITUDE": -55.120005332, "brigade": null, "Link": null }, "geometry": { "type": "Point", "coordinates": [ -6135930.926085081882775, -3957857.745322918519378 ] } }
,
{ "type": "Feature", "id": 15, "properties": { "NAME": "Minas", "LATITUDE": -34.370009339600003, "LONGITUDE": -55.230024456400002, "brigade": null, "Link": null }, "geometry": { "type": "Point", "coordinates": [ -6148178.198985176160932, -4078594.110248631797731 ] } }
,
{ "type": "Feature", "id": 16, "properties": { "NAME": "Maldonado", "LATITUDE": -34.9100280571, "LONGITUDE": -54.959989259399997, "brigade": null, "Link": null }, "geometry": { "type": "Point", "coordinates": [ -6118118.018365427851677, -4151661.028412190731615 ] } }
,
{ "type": "Feature", "id": 17, "properties": { "NAME": "Punta del Este", "LATITUDE": -34.969972718500003, "LONGITUDE": -54.9499898698, "brigade": null, "Link": null }, "geometry": { "type": "Point", "coordinates": [ -6117004.891401512548327, -4159801.304794980213046 ] } }
,
{ "type": "Feature", "id": 18, "properties": { "NAME": "Aigua", "LATITUDE": -34.199993877399997, "LONGITUDE": -54.750002076800001, "brigade": null, "Link": null }, "geometry": { "type": "Point", "coordinates": [ -6094742.352123267017305, -4055688.03494529472664 ] } }
,
{ "type": "Feature", "id": 19, "properties": { "NAME": "La Paloma", "LATITUDE": -34.669991029099997, "LONGITUDE": -54.169985800799999, "brigade": null, "Link": null }, "geometry": { "type": "Point", "coordinates": [ -6030175.235622234642506, -4119124.18809608137235 ] } }
,
{ "type": "Feature", "id": 20, "properties": { "NAME": "Lascano", "LATITUDE": -33.669586976399998, "LONGITUDE": -54.200009807900003, "brigade": null, "Link": null }, "geometry": { "type": "Point", "coordinates": [ -6033517.492811040952802, -3984521.449095513205975 ] } }
,
{ "type": "Feature", "id": 21, "properties": { "NAME": "Castillos", "LATITUDE": -34.169608135200001, "LONGITUDE": -53.829980714500003, "brigade": null, "Link": null }, "geometry": { "type": "Point", "coordinates": [ -5992326.042552172206342, -4051599.055032427422702 ] } }
,
{ "type": "Feature", "id": 22, "properties": { "NAME": "Rocha", "LATITUDE": -34.482974020599997, "LONGITUDE": -54.3330249447, "brigade": null, "Link": null }, "geometry": { "type": "Point", "coordinates": [ -6048324.670098428614438, -4093839.477720845025033 ] } }
,
{ "type": "Feature", "id": 23, "properties": { "NAME": "Faribault", "LATITUDE": 44.290486469599998, "LONGITUDE": -93.268012737800007, "brigade": null, "Link": null }, "geometry": { "type": "Point", "coordinates": [ -10382547.685271363705397, 5510506.233591300435364 ] } }
,
{ "type": "Feature", "id": 24, "properties": { "NAME": "Virginia", "LATITUDE": 47.523674132399996, "LONGITUDE": -92.536403647599997, "brigade": null, "Link": null }, "geometry": { "type": "Point", "coordinates": [ -10301105.333893673494458, 6027973.873364614322782 ] } }
,
{ "type": "Feature", "id": 25, "properties": { "NAME": "Winona", "LATITUDE": 44.050423603399999, "LONGITUDE": -91.639197430199999, "brigade": null, "Link": null }, "geometry": { "type": "Point", "coordinates": [ -10201228.794630408287048, 5473248.67077200114727 ] } }
,
{ "type": "Feature", "id": 26, "properties": { "NAME": "Rochester", "LATITUDE": 44.0220532421, "LONGITUDE": -92.469689373500003, "brigade": null, "Link": null }, "geometry": { "type": "Point", "coordinates": [ -10293678.734873471781611, 5468855.607821299694479 ] } }
,
{ "type": "Feature", "id": 27, "properties": { "NAME": "Lakeville", "LATITUDE": 44.650102761900001, "LONGITUDE": -93.242510418500004, "brigade": null, "Link": null }, "geometry": { "type": "Point", "coordinates": [ -10379708.780068838968873, 5566604.501338476315141 ] } }
,
{ "type": "Feature", "id": 28, "properties": { "NAME": "Ely", "LATITUDE": 47.900421162, "LONGITUDE": -91.825697674300002, "brigade": null, "Link": null }, "geometry": { "type": "Point", "coordinates": [ -10221989.906841048970819, 6090304.423892549239099 ] } }
,
{ "type": "Feature", "id": 29, "properties": { "NAME": "Mankato", "LATITUDE": 44.163620828299997, "LONGITUDE": -93.999156740100005, "brigade": null, "Link": null }, "geometry": { "type": "Point", "coordinates": [ -10463938.263301914557815, 5490797.896131335757673 ] } }
,
{ "type": "Feature", "id": 30, "properties": { "NAME": "Albert Lea", "LATITUDE": 43.647786681200003, "LONGITUDE": -93.368704266099996, "brigade": null, "Link": null }, "geometry": { "type": "Point", "coordinates": [ -10393756.614931236952543, 5411097.165998406708241 ] } }
,
{ "type": "Feature", "id": 31, "properties": { "NAME": "Willmar", "LATITUDE": 45.121882750499999, "LONGITUDE": -95.043304892699993, "brigade": null, "Link": null }, "geometry": { "type": "Point", "coordinates": [ -10580172.303970256820321, 5640729.883093145675957 ] } }
,
{ "type": "Feature", "id": 32, "properties": { "NAME": "Brainerd", "LATITUDE": 46.358008849199997, "LONGITUDE": -94.200849855300007, "brigade": null, "Link": null }, "geometry": { "type": "Point", "coordinates": [ -10486390.638186410069466, 5837907.178612998686731 ] } }
,
{ "type": "Feature", "id": 33, "properties": { "NAME": "Crookston", "LATITUDE": 47.773762226400002, "LONGITUDE": -96.607731365700005, "brigade": null, "Link": null }, "geometry": { "type": "Point", "coordinates": [ -10754323.462326807901263, 6069299.12063402030617 ] } }
,
{ "type": "Feature", "id": 34, "properties": { "NAME": "Moorhead", "LATITUDE": 46.874308084200003, "LONGITUDE": -96.742193442599998, "brigade": null, "Link": null }, "geometry": { "type": "Point", "coordinates": [ -10769291.712249802425504, 5921582.030476104468107 ] } }
,
{ "type": "Feature", "id": 35, "properties": { "NAME": "St. Cloud", "LATITUDE": 45.561209939699999, "LONGITUDE": -94.162221722200002, "brigade": null, "Link": null }, "geometry": { "type": "Point", "coordinates": [ -10482090.574075169861317, 5710309.479365976527333 ] } }
,
{ "type": "Feature", "id": 36, "properties": { "NAME": "Hardin", "LATITUDE": 45.731768004400003, "LONGITUDE": -107.612486004, "brigade": null, "Link": null }, "geometry": { "type": "Point", "coordinates": [ -11979367.145013570785522, 5737468.554621515795588 ] } }
,
{ "type": "Feature", "id": 37, "properties": { "NAME": "Glendive", "LATITUDE": 47.10858319, "LONGITUDE": -104.710492596, "brigade": null, "Link": null }, "geometry": { "type": "Point", "coordinates": [ -11656318.716525677591562, 5959815.657424058765173 ] } }
,
{ "type": "Feature", "id": 38, "properties": { "NAME": "Dillon", "LATITUDE": 45.215675475099999, "LONGITUDE": -112.683985231, "brigade": null, "Link": null }, "geometry": { "type": "Point", "coordinates": [ -12543923.856511484831572, 5655539.322086106054485 ] } }
,
{ "type": "Feature", "id": 39, "properties": { "NAME": "Polson", "LATITUDE": 47.688005187100003, "LONGITUDE": -114.156686037, "brigade": null, "Link": null }, "geometry": { "type": "Point", "coordinates": [ -12707864.160289512947202, 6055106.081650758162141 ] } }
,
{ "type": "Feature", "id": 40, "properties": { "NAME": "Miles City", "LATITUDE": 46.408884296799997, "LONGITUDE": -105.839984377, "brigade": null, "Link": null }, "geometry": { "type": "Point", "coordinates": [ -11782053.166397638618946, 5846117.085237545892596 ] } }
,
{ "type": "Feature", "id": 41, "properties": { "NAME": "Bozeman", "LATITUDE": 45.680091572099997, "LONGITUDE": -111.037832481, "brigade": null, "Link": null }, "geometry": { "type": "Point", "coordinates": [ -12360674.970540339127183, 5729231.041729190386832 ] } }
,
{ "type": "Feature", "id": 42, "properties": { "NAME": "Glasgow", "LATITUDE": 48.183969746, "LONGITUDE": -106.635258832, "brigade": null, "Link": null }, "geometry": { "type": "Point", "coordinates": [ -11870582.713741956278682, 6137515.59955786075443 ] } }
,
{ "type": "Feature", "id": 43, "properties": { "NAME": "Butte", "LATITUDE": 46.0038960969, "LONGITUDE": -112.533839357, "brigade": null, "Link": null }, "geometry": { "type": "Point", "coordinates": [ -12527209.694270426407456, 5780973.594496041536331 ] } }
,
{ "type": "Feature", "id": 44, "properties": { "NAME": "Devils Lake", "LATITUDE": 48.112217019699997, "LONGITUDE": -98.859686932100004, "brigade": null, "Link": null }, "geometry": { "type": "Point", "coordinates": [ -11005010.009269222617149, 6125544.094258389435709 ] } }
,
{ "type": "Feature", "id": 45, "properties": { "NAME": "Dickinson", "LATITUDE": 46.8839974152, "LONGITUDE": -102.788801109, "brigade": null, "Link": null }, "geometry": { "type": "Point", "coordinates": [ -11442396.998660055920482, 5923160.010330499149859 ] } }
,
{ "type": "Feature", "id": 46, "properties": { "NAME": "Jamestown", "LATITUDE": 46.906011575400001, "LONGITUDE": -98.7029781512, "brigade": null, "Link": null }, "geometry": { "type": "Point", "coordinates": [ -10987565.267573805525899, 5926746.240254225209355 ] } }
,
{ "type": "Feature", "id": 47, "properties": { "NAME": "Williston", "LATITUDE": 48.156787942599998, "LONGITUDE": -103.628000531, "brigade": null, "Link": null }, "geometry": { "type": "Point", "coordinates": [ -11535816.251013787463307, 6132978.511642218567431 ] } }
,
{ "type": "Feature", "id": 48, "properties": { "NAME": "Grand Forks", "LATITUDE": 47.9252775259, "LONGITUDE": -97.032485801, "brigade": null, "Link": null }, "geometry": { "type": "Point", "coordinates": [ -10801606.909768017008901, 6094432.668168256059289 ] } }
,
{ "type": "Feature", "id": 49, "properties": { "NAME": "Lihue", "LATITUDE": 21.981512267, "LONGITUDE": -159.371006309, "brigade": null, "Link": null }, "geometry": { "type": "Point", "coordinates": [ -17741099.269531514495611, 2509305.706425613723695 ] } }
,
{ "type": "Feature", "id": 50, "properties": { "NAME": "Wahiawa", "LATITUDE": 21.503091856899999, "LONGITUDE": -158.023620852, "brigade": null, "Link": null }, "geometry": { "type": "Point", "coordinates": [ -17591109.006515692919493, 2451969.015464883763343 ] } }
,
{ "type": "Feature", "id": 51, "properties": { "NAME": "Wailuku", "LATITUDE": 20.891475442499999, "LONGITUDE": -156.504721316, "brigade": null, "Link": null }, "geometry": { "type": "Point", "coordinates": [ -17422025.883586570620537, 2378942.888365184888244 ] } }
,
{ "type": "Feature", "id": 52, "properties": { "NAME": "Burley", "LATITUDE": 42.535813211099999, "LONGITUDE": -113.791876263, "brigade": null, "Link": null }, "geometry": { "type": "Point", "coordinates": [ -12667253.722037643194199, 5241582.672323552891612 ] } }
,
{ "type": "Feature", "id": 53, "properties": { "NAME": "Wallace", "LATITUDE": 47.474219786699997, "LONGITUDE": -115.926888063, "brigade": null, "Link": null }, "geometry": { "type": "Point", "coordinates": [ -12904922.148466723039746, 6019825.260965082794428 ] } }
,
{ "type": "Feature", "id": 54, "properties": { "NAME": "Montpelier", "LATITUDE": 42.322622089699998, "LONGITUDE": -111.296912274, "brigade": null, "Link": null }, "geometry": { "type": "Point", "coordinates": [ -12389515.601204797625542, 5209429.850905627012253 ] } }
,
{ "type": "Feature", "id": 55, "properties": { "NAME": "Twin Falls", "LATITUDE": 42.560953795400003, "LONGITUDE": -114.460569297, "brigade": null, "Link": null }, "geometry": { "type": "Point", "coordinates": [ -12741692.290063597261906, 5245381.521437343209982 ] } }
,
{ "type": "Feature", "id": 56, "properties": { "NAME": "Caldwell", "LATITUDE": 43.660964171400003, "LONGITUDE": -116.670537762, "brigade": null, "Link": null }, "geometry": { "type": "Point", "coordinates": [ -12987704.854276411235332, 5413124.639269753359258 ] } }
,
{ "type": "Feature", "id": 57, "properties": { "NAME": "Salmon", "LATITUDE": 45.1756779165, "LONGITUDE": -113.894996584, "brigade": null, "Link": null }, "geometry": { "type": "Point", "coordinates": [ -12678733.023621551692486, 5649220.909237157553434 ] } }
,
{ "type": "Feature", "id": 58, "properties": { "NAME": "Coeur d'Alene", "LATITUDE": 47.6780833121, "LONGITUDE": -116.779445843, "brigade": null, "Link": null }, "geometry": { "type": "Point", "coordinates": [ -12999828.446402747184038, 6053465.489525141194463 ] } }
,
{ "type": "Feature", "id": 59, "properties": { "NAME": "Pocatello", "LATITUDE": 42.871348286, "LONGITUDE": -112.44472335, "brigade": null, "Link": null }, "geometry": { "type": "Point", "coordinates": [ -12517289.345695393159986, 5292410.200410025194287 ] } }
,
{ "type": "Feature", "id": 60, "properties": { "NAME": "Kennewick", "LATITUDE": 46.211376972499998, "LONGITUDE": -119.136097862, "brigade": null, "Link": null }, "geometry": { "type": "Point", "coordinates": [ -13262169.74905, 5814287.473899470642209 ] } }
,
{ "type": "Feature", "id": 61, "properties": { "NAME": "Centralia", "LATITUDE": 46.716410745300003, "LONGITUDE": -122.952970827, "brigade": null, "Link": null }, "geometry": { "type": "Point", "coordinates": [ -13687062.103993197903037, 5895907.312755007296801 ] } }
,
{ "type": "Feature", "id": 62, "properties": { "NAME": "Richland", "LATITUDE": 46.291811339399999, "LONGITUDE": -119.29110132, "brigade": null, "Link": null }, "geometry": { "type": "Point", "coordinates": [ -13279424.655139174312353, 5827236.145337132737041 ] } }
,
{ "type": "Feature", "id": 63, "properties": { "NAME": "Bellingham", "LATITUDE": 48.760136127800003, "LONGITUDE": -122.486926922, "brigade": null, "Link": null }, "geometry": { "type": "Point", "coordinates": [ -13635182.333843113854527, 6234259.085426663979888 ] } }
,
{ "type": "Feature", "id": 64, "properties": { "NAME": "Longview", "LATITUDE": 46.138719908699997, "LONGITUDE": -122.936951133, "brigade": null, "Link": null }, "geometry": { "type": "Point", "coordinates": [ -13685278.799813278019428, 5802607.118158206343651 ] } }
,
{ "type": "Feature", "id": 65, "properties": { "NAME": "Walla Walla", "LATITUDE": 46.0651585074, "LONGITUDE": -118.341882774, "brigade": null, "Link": null }, "geometry": { "type": "Point", "coordinates": [ -13173758.129885336384177, 5790797.072082025930285 ] } }
,
{ "type": "Feature", "id": 66, "properties": { "NAME": "Aberdeen", "LATITUDE": 46.974896259600001, "LONGITUDE": -123.814391115, "brigade": null, "Link": null }, "geometry": { "type": "Point", "coordinates": [ -13782954.971822302788496, 5937977.465247616171837 ] } }
,
{ "type": "Feature", "id": 67, "properties": { "NAME": "Bremerton", "LATITUDE": 47.573595523599998, "LONGITUDE": -122.642017533, "brigade": null, "Link": null }, "geometry": { "type": "Point", "coordinates": [ -13652446.94160670787096, 6036207.235937075689435 ] } }
,
{ "type": "Feature", "id": 68, "properties": { "NAME": "Everett", "LATITUDE": 47.960417499899997, "LONGITUDE": -122.199967694, "brigade": null, "Link": null }, "geometry": { "type": "Point", "coordinates": [ -13603238.178646186366677, 6100272.241685470566154 ] } }
,
{ "type": "Feature", "id": 69, "properties": { "NAME": "Tacoma", "LATITUDE": 47.211315937400002, "LONGITUDE": -122.515013063, "brigade": null, "Link": null }, "geometry": { "type": "Point", "coordinates": [ -13638308.868752079084516, 5976634.680205071344972 ] } }
,
{ "type": "Feature", "id": 70, "properties": { "NAME": "Glendale", "LATITUDE": 33.581941140799998, "LONGITUDE": -112.195823814, "brigade": null, "Link": null }, "geometry": { "type": "Point", "coordinates": [ -12489581.976074306294322, 3972804.124749723356217 ] } }
,
{ "type": "Feature", "id": 71, "properties": { "NAME": "Safford", "LATITUDE": 32.833821430500002, "LONGITUDE": -109.706880129, "brigade": null, "Link": null }, "geometry": { "type": "Point", "coordinates": [ -12212514.032457459717989, 3873267.253572493325919 ] } }
,
{ "type": "Feature", "id": 72, "properties": { "NAME": "Casa Grande", "LATITUDE": 32.879374205600001, "LONGITUDE": -111.756625816, "brigade": null, "Link": null }, "geometry": { "type": "Point", "coordinates": [ -12440690.678574111312628, 3879303.830152563285083 ] } }
,
{ "type": "Feature", "id": 73, "properties": { "NAME": "Mesa", "LATITUDE": 33.423914610799997, "LONGITUDE": -111.736084434, "brigade": null, "Link": null }, "geometry": { "type": "Point", "coordinates": [ -12438404.022407932206988, 3951707.665399997960776 ] } }
,
{ "type": "Feature", "id": 74, "properties": { "NAME": "Lake Havasu City", "LATITUDE": 34.498293476400001, "LONGITUDE": -114.308278851, "brigade": null, "Link": null }, "geometry": { "type": "Point", "coordinates": [ -12724739.39516618475318, 4095908.532792632468045 ] } }
,
{ "type": "Feature", "id": 75, "properties": { "NAME": "Bullhead City", "LATITUDE": 35.148176288899997, "LONGITUDE": -114.567487836, "brigade": null, "Link": null }, "geometry": { "type": "Point", "coordinates": [ -12753594.407315963879228, 4184035.986552810762078 ] } }
,
{ "type": "Feature", "id": 76, "properties": { "NAME": "Winslow", "LATITUDE": 35.284705423, "LONGITUDE": -110.700695436, "brigade": null, "Link": null }, "geometry": { "type": "Point", "coordinates": [ -12323145.046444401144981, 4202639.099148854613304 ] } }
,
{ "type": "Feature", "id": 77, "properties": { "NAME": "Gila Bend", "LATITUDE": 32.950377623500003, "LONGITUDE": -112.724654584, "brigade": null, "Link": null }, "geometry": { "type": "Point", "coordinates": [ -12548451.148090811446309, 3888719.273603590205312 ] } }
,
{ "type": "Feature", "id": 78, "properties": { "NAME": "Tombstone", "LATITUDE": 31.7131404816, "LONGITUDE": -110.066883994, "brigade": null, "Link": null }, "geometry": { "type": "Point", "coordinates": [ -12252589.479455357417464, 3725714.479894482996315 ] } }
,
{ "type": "Feature", "id": 79, "properties": { "NAME": "Willcox", "LATITUDE": 32.253210875500002, "LONGITUDE": -109.831394492, "brigade": null, "Link": null }, "geometry": { "type": "Point", "coordinates": [ -12226374.908010667189956, 3796594.576124654151499 ] } }
,
{ "type": "Feature", "id": 80, "properties": { "NAME": "Scottsdale", "LATITUDE": 33.692347838400003, "LONGITUDE": -111.868040204, "brigade": null, "Link": null }, "geometry": { "type": "Point", "coordinates": [ -12453093.271515676751733, 3987566.288326153997332 ] } }
,
{ "type": "Feature", "id": 81, "properties": { "NAME": "Kingman", "LATITUDE": 35.189879169800001, "LONGITUDE": -114.052222129, "brigade": null, "Link": null }, "geometry": { "type": "Point", "coordinates": [ -12696235.291258241981268, 4189714.997421826701611 ] } }
,
{ "type": "Feature", "id": 82, "properties": { "NAME": "Grand Canyon", "LATITUDE": 36.054787617, "LONGITUDE": -112.138592165, "brigade": null, "Link": null }, "geometry": { "type": "Point", "coordinates": [ -12483210.978076718747616, 4308162.684725078754127 ] } }
,
{ "type": "Feature", "id": 83, "properties": { "NAME": "Yuma", "LATITUDE": 32.685277525899998, "LONGITUDE": -114.623608441, "brigade": null, "Link": null }, "geometry": { "type": "Point", "coordinates": [ -12759841.72453978471458, 3853603.940469064749777 ] } }
,
{ "type": "Feature", "id": 84, "properties": { "NAME": "Prescott", "LATITUDE": 34.590019143699998, "LONGITUDE": -112.447772259, "brigade": null, "Link": null }, "geometry": { "type": "Point", "coordinates": [ -12517628.7487, 4108305.021482886280864 ] } }
,
{ "type": "Feature", "id": 85, "properties": { "NAME": "Berkeley", "LATITUDE": 37.873901386599996, "LONGITUDE": -122.271151979, "brigade": null, "Link": null }, "geometry": { "type": "Point", "coordinates": [ -13611162.377058543264866, 4561627.591061708517373 ] } }
,
{ "type": "Feature", "id": 86, "properties": { "NAME": "National City", "LATITUDE": 32.6719450063, "LONGITUDE": -117.09800521, "brigade": null, "Link": null }, "geometry": { "type": "Point", "coordinates": [ -13035290.312909381464124, 3851840.666818269528449 ] } }
,
{ "type": "Feature", "id": 87, "properties": { "NAME": "Mendocino", "LATITUDE": 39.307767353400003, "LONGITUDE": -123.799430788, "brigade": null, "Link": null }, "geometry": { "type": "Point", "coordinates": [ -13781289.595822021365166, 4765852.977811658754945 ] } }
,
{ "type": "Feature", "id": 88, "properties": { "NAME": "Arcata", "LATITUDE": 40.885190449100001, "LONGITUDE": -124.08822453, "brigade": null, "Link": null }, "geometry": { "type": "Point", "coordinates": [ -13813437.968110509216785, 4995422.001720631495118 ] } }
,
{ "type": "Feature", "id": 89, "properties": { "NAME": "Paso Robles", "LATITUDE": 35.626596699099998, "LONGITUDE": -120.689982342, "brigade": null, "Link": null }, "geometry": { "type": "Point", "coordinates": [ -13435147.378204276785254, 4249362.550019250251353 ] } }
,
{ "type": "Feature", "id": 90, "properties": { "NAME": "Riverside", "LATITUDE": 33.941945006300003, "LONGITUDE": -117.398038576, "brigade": null, "Link": null }, "geometry": { "type": "Point", "coordinates": [ -13068689.874420879408717, 4021009.3202074454166 ] } }
,
{ "type": "Feature", "id": 91, "properties": { "NAME": "Delano", "LATITUDE": 35.761937275199998, "LONGITUDE": -119.243068076, "brigade": null, "Link": null }, "geometry": { "type": "Point", "coordinates": [ -13274077.618896503001451, 4267913.558063754811883 ] } }
,
{ "type": "Feature", "id": 92, "properties": { "NAME": "San Mateo", "LATITUDE": 37.556918150900003, "LONGITUDE": -122.313061566, "brigade": "Y", "Link": "http:\/\/hackhunger.eventbrite.com\/" }, "geometry": { "type": "Point", "coordinates": [ -13615827.730896947905421, 4517020.918588792905211 ] } }
,
{ "type": "Feature", "id": 93, "properties": { "NAME": "Vallejo", "LATITUDE": 38.111948871899997, "LONGITUDE": -122.258052004, "brigade": null, "Link": null }, "geometry": { "type": "Point", "coordinates": [ -13609704.09444690681994, 4595252.527045981027186 ] } }
,
{ "type": "Feature", "id": 94, "properties": { "NAME": "Stockton", "LATITUDE": 37.958133971199999, "LONGITUDE": -121.289739016, "brigade": null, "Link": null }, "geometry": { "type": "Point", "coordinates": [ -13501911.985662495717406, 4573513.234139614738524 ] } }
,
{ "type": "Feature", "id": 95, "properties": { "NAME": "Barstow", "LATITUDE": 34.899018370599997, "LONGITUDE": -117.021885825, "brigade": null, "Link": null }, "geometry": { "type": "Point", "coordinates": [ -13026816.741757739335299, 4150166.59763901354745 ] } }
,
{ "type": "Feature", "id": 96, "properties": { "NAME": "Victorville", "LATITUDE": 34.536508198100002, "LONGITUDE": -117.290319053, "brigade": null, "Link": null }, "geometry": { "type": "Point", "coordinates": [ -13056698.59195951372385, 4101071.494353971909732 ] } }
,
{ "type": "Feature", "id": 97, "properties": { "NAME": "Pasadena", "LATITUDE": 34.160381285600003, "LONGITUDE": -118.138871909, "brigade": null, "Link": null }, "geometry": { "type": "Point", "coordinates": [ -13151159.063850553706288, 4050357.698229962494224 ] } }
,
{ "type": "Feature", "id": 98, "properties": { "NAME": "Visalia", "LATITUDE": 36.325029519700003, "LONGITUDE": -119.316009361, "brigade": null, "Link": null }, "geometry": { "type": "Point", "coordinates": [ -13282197.405509227886796, 4345437.593185984529555 ] } }
,
{ "type": "Feature", "id": 99, "properties": { "NAME": "San Bernardino", "LATITUDE": 34.120383727, "LONGITUDE": -117.300034222, "brigade": null, "Link": null }, "geometry": { "type": "Point", "coordinates": [ -13057996.691645657643676, 4045239.752128640189767 ] } }
,
{ "type": "Feature", "id": 100, "properties": { "NAME": "El Centro", "LATITUDE": 32.7923769318, "LONGITUDE": -115.558047528, "brigade": null, "Link": null }, "geometry": { "type": "Point", "coordinates": [ -12863863.007872797548771, 3867777.788927053567022 ] } }
,
{ "type": "Feature", "id": 101, "properties": { "NAME": "San Luis Obispo", "LATITUDE": 35.283180968300002, "LONGITUDE": -120.65858891, "brigade": null, "Link": null }, "geometry": { "type": "Point", "coordinates": [ -13431652.677271077409387, 4202431.207894536666572 ] } }
,
{ "type": "Feature", "id": 102, "properties": { "NAME": "Merced", "LATITUDE": 37.302618427600002, "LONGITUDE": -120.481933026, "brigade": null, "Link": null }, "geometry": { "type": "Point", "coordinates": [ -13411987.434241950511932, 4481372.255126773379743 ] } }
,
{ "type": "Feature", "id": 103, "properties": { "NAME": "Yuba City", "LATITUDE": 39.141033344599997, "LONGITUDE": -121.615765627, "brigade": null, "Link": null }, "geometry": { "type": "Point", "coordinates": [ -13538205.102020740509033, 4741893.570262896828353 ] } }
,
{ "type": "Feature", "id": 104, "properties": { "NAME": "Redding", "LATITUDE": 40.587043273, "LONGITUDE": -122.390576214, "brigade": null, "Link": null }, "geometry": { "type": "Point", "coordinates": [ -13624456.622090065851808, 4951620.138606317341328 ] } }
,
{ "type": "Feature", "id": 105, "properties": { "NAME": "Santa Rosa", "LATITUDE": 38.4504036652, "LONGITUDE": -122.699988853, "brigade": null, "Link": null }, "geometry": { "type": "Point", "coordinates": [ -13658900.279435927048326, 4643249.598009136505425 ] } }
,
{ "type": "Feature", "id": 106, "properties": { "NAME": "Oceanside", "LATITUDE": 33.2204644969, "LONGITUDE": -117.33496749, "brigade": null, "Link": null }, "geometry": { "type": "Point", "coordinates": [ -13061668.833286745473742, 3924603.632777120452374 ] } }
,
{ "type": "Feature", "id": 107, "properties": { "NAME": "Modesto", "LATITUDE": 37.655413430800003, "LONGITUDE": -120.98998987, "brigade": null, "Link": null }, "geometry": { "type": "Point", "coordinates": [ -13468544.06341870687902, 4530861.003782071173191 ] } }
,
{ "type": "Feature", "id": 108, "properties": { "NAME": "Irvine", "LATITUDE": 33.680410582500002, "LONGITUDE": -117.829950197, "brigade": null, "Link": null }, "geometry": { "type": "Point", "coordinates": [ -13116770.056148920208216, 3985969.278825285844505 ] } }
,
{ "type": "Feature", "id": 109, "properties": { "NAME": "Ukiah", "LATITUDE": 39.154236673, "LONGITUDE": -123.210862062, "brigade": null, "Link": null }, "geometry": { "type": "Point", "coordinates": [ -13715770.424992695450783, 4743788.794616598635912 ] } }
,
{ "type": "Feature", "id": 110, "properties": { "NAME": "Needles", "LATITUDE": 34.848427143400002, "LONGITUDE": -114.613350669, "brigade": null, "Link": null }, "geometry": { "type": "Point", "coordinates": [ -12758699.834605220705271, 4143302.028396307490766 ] } }
,
{ "type": "Feature", "id": 111, "properties": { "NAME": "Bishop", "LATITUDE": 37.363958352700003, "LONGITUDE": -118.39407597, "brigade": null, "Link": null }, "geometry": { "type": "Point", "coordinates": [ -13179568.249955367296934, 4489960.039374355226755 ] } }
,
{ "type": "Feature", "id": 112, "properties": { "NAME": "Palm Springs", "LATITUDE": 33.777355569500003, "LONGITUDE": -116.533052614, "brigade": null, "Link": null }, "geometry": { "type": "Point", "coordinates": [ -12972400.077596893534064, 3998945.354680589400232 ] } }
,
{ "type": "Feature", "id": 113, "properties": { "NAME": "Santa Maria", "LATITUDE": 34.940126972500003, "LONGITUDE": -120.436638633, "brigade": null, "Link": null }, "geometry": { "type": "Point", "coordinates": [ -13406945.285488110035658, 4155747.612608002498746 ] } }
,
{ "type": "Feature", "id": 114, "properties": { "NAME": "Tulare", "LATITUDE": 36.207026386599999, "LONGITUDE": -119.34412134, "brigade": null, "Link": null }, "geometry": { "type": "Point", "coordinates": [ -13285326.816715266555548, 4329145.402869104407728 ] } }
,
{ "type": "Feature", "id": 115, "properties": { "NAME": "Mt. Shasta", "LATITUDE": 41.3103582958, "LONGITUDE": -122.309392539, "brigade": null, "Link": null }, "geometry": { "type": "Point", "coordinates": [ -13615419.296713808551431, 5058227.78393686003983 ] } }
,
{ "type": "Feature", "id": 116, "properties": { "NAME": "Crescent City", "LATITUDE": 41.756455097500002, "LONGITUDE": -124.200491579, "brigade": null, "Link": null }, "geometry": { "type": "Point", "coordinates": [ -13825935.478855215013027, 5124567.125527706928551 ] } }
,
{ "type": "Feature", "id": 117, "properties": { "NAME": "Long Beach", "LATITUDE": 33.786967385899999, "LONGITUDE": -118.158043866, "brigade": null, "Link": null }, "geometry": { "type": "Point", "coordinates": [ -13153293.27627232298255, 4000232.694742301944643 ] } }
,
{ "type": "Feature", "id": 118, "properties": { "NAME": "Glenwood Springs", "LATITUDE": 39.546589985200001, "LONGITUDE": -107.324699953, "brigade": null, "Link": null }, "geometry": { "type": "Point", "coordinates": [ -11947330.948310593143106, 4800271.082383948378265 ] } }
,
{ "type": "Feature", "id": 119, "properties": { "NAME": "Aurora", "LATITUDE": 39.695857359900003, "LONGITUDE": -104.80849695, "brigade": null, "Link": null }, "geometry": { "type": "Point", "coordinates": [ -11667228.511290835216641, 4821843.033379988744855 ] } }
,
{ "type": "Feature", "id": 120, "properties": { "NAME": "Greeley", "LATITUDE": 40.4191982209, "LONGITUDE": -104.739974001, "brigade": null, "Link": null }, "geometry": { "type": "Point", "coordinates": [ -11659600.571476120501757, 4927047.328470437787473 ] } }
,
{ "type": "Feature", "id": 121, "properties": { "NAME": "Fort Collins", "LATITUDE": 40.560688292499997, "LONGITUDE": -105.058869265, "brigade": null, "Link": null }, "geometry": { "type": "Point", "coordinates": [ -11695099.829844595864415, 4947757.649903185665607 ] } }
,
{ "type": "Feature", "id": 122, "properties": { "NAME": "Pueblo", "LATITUDE": 38.280388203, "LONGITUDE": -104.630006553, "brigade": null, "Link": null }, "geometry": { "type": "Point", "coordinates": [ -11647359.051170149818063, 4619111.335466621443629 ] } }
,
{ "type": "Feature", "id": 123, "properties": { "NAME": "Lamar", "LATITUDE": 38.086498229, "LONGITUDE": -102.619405764, "brigade": null, "Link": null }, "geometry": { "type": "Point", "coordinates": [ -11423539.995106026530266, 4591652.328201978467405 ] } }
,
{ "type": "Feature", "id": 124, "properties": { "NAME": "Trinidad", "LATITUDE": 37.171334451299998, "LONGITUDE": -104.506396527, "brigade": null, "Link": null }, "geometry": { "type": "Point", "coordinates": [ -11633598.846014190465212, 4463015.58392554987222 ] } }
,
{ "type": "Feature", "id": 125, "properties": { "NAME": "Gunnison", "LATITUDE": 38.544764830600002, "LONGITUDE": -106.928290041, "brigade": null, "Link": null }, "geometry": { "type": "Point", "coordinates": [ -11903202.7987, 4656671.241021647118032 ] } }
,
{ "type": "Feature", "id": 126, "properties": { "NAME": "Durango", "LATITUDE": 37.275643329899999, "LONGITUDE": -107.879989056, "brigade": null, "Link": null }, "geometry": { "type": "Point", "coordinates": [ -12009145.44852102175355, 4477597.873668263666332 ] } }
,
{ "type": "Feature", "id": 127, "properties": { "NAME": "Montrose", "LATITUDE": 38.47727541, "LONGITUDE": -107.865519655, "brigade": null, "Link": null }, "geometry": { "type": "Point", "coordinates": [ -12007534.722164966166019, 4647069.962811089120805 ] } }
,
{ "type": "Feature", "id": 128, "properties": { "NAME": "Craig", "LATITUDE": 40.517280089400003, "LONGITUDE": -107.550396771, "brigade": null, "Link": null }, "geometry": { "type": "Point", "coordinates": [ -11972455.403167882934213, 4941399.21718 ] } }
,
{ "type": "Feature", "id": 129, "properties": { "NAME": "Boulder", "LATITUDE": 40.038446267799998, "LONGITUDE": -105.246092979, "brigade": null, "Link": null }, "geometry": { "type": "Point", "coordinates": [ -11715941.478373050689697, 4871530.760214045643806 ] } }
,
{ "type": "Feature", "id": 130, "properties": { "NAME": "Grand Junction", "LATITUDE": 39.093852761900003, "LONGITUDE": -108.549999839, "brigade": null, "Link": null }, "geometry": { "type": "Point", "coordinates": [ -12083730.707697251811624, 4735124.105535756796598 ] } }
,
{ "type": "Feature", "id": 131, "properties": { "NAME": "Tonopah", "LATITUDE": 38.066990375800003, "LONGITUDE": -117.228979128, "brigade": null, "Link": null }, "geometry": { "type": "Point", "coordinates": [ -13049870.262728689238429, 4588893.633371671661735 ] } }
,
{ "type": "Feature", "id": 132, "properties": { "NAME": "Boulder City", "LATITUDE": 35.978952452599998, "LONGITUDE": -114.831580243, "brigade": null, "Link": null }, "geometry": { "type": "Point", "coordinates": [ -12782993.039610899984837, 4297725.648329711519182 ] } }
,
{ "type": "Feature", "id": 133, "properties": { "NAME": "Winnemucca", "LATITUDE": 40.973376280799997, "LONGITUDE": -117.734684694, "brigade": null, "Link": null }, "geometry": { "type": "Point", "coordinates": [ -13106165.148872576653957, 5008415.464106101542711 ] } }
,
{ "type": "Feature", "id": 134, "properties": { "NAME": "Ely", "LATITUDE": 39.247021707199998, "LONGITUDE": -114.88767501, "brigade": null, "Link": null }, "geometry": { "type": "Point", "coordinates": [ -12789237.480537658557296, 4757117.333689308725297 ] } }
,
{ "type": "Feature", "id": 135, "properties": { "NAME": "Carson City", "LATITUDE": 39.163848489400003, "LONGITUDE": -119.766395306, "brigade": null, "Link": null }, "geometry": { "type": "Point", "coordinates": [ -13332334.139638300985098, 4745168.711954838596284 ] } }
,
{ "type": "Feature", "id": 136, "properties": { "NAME": "Deming", "LATITUDE": 32.261091531399998, "LONGITUDE": -107.755784751, "brigade": null, "Link": null }, "geometry": { "type": "Point", "coordinates": [ -11995319.088532583788037, 3797631.954440893605351 ] } }
,
{ "type": "Feature", "id": 137, "properties": { "NAME": "Truth or Consequences", "LATITUDE": 33.133596414199999, "LONGITUDE": -107.25289555, "brigade": null, "Link": null }, "geometry": { "type": "Point", "coordinates": [ -11939337.718768708407879, 3913050.10820757271722 ] } }
,
{ "type": "Feature", "id": 138, "properties": { "NAME": "Las Vegas", "LATITUDE": 35.597011941600002, "LONGITUDE": -105.222502687, "brigade": "Y", "Link": "http:\/\/www.vegashack.com\/" }, "geometry": { "type": "Point", "coordinates": [ -11713315.419153260067105, 4245311.580841583199799 ] } }
,
{ "type": "Feature", "id": 139, "properties": { "NAME": "Farmington", "LATITUDE": 36.7541506134, "LONGITUDE": -108.186094403, "brigade": null, "Link": null }, "geometry": { "type": "Point", "coordinates": [ -12043220.939842643216252, 4404893.73104375321418 ] } }
,
{ "type": "Feature", "id": 140, "properties": { "NAME": "Roswell", "LATITUDE": 33.394536559099997, "LONGITUDE": -104.522467897, "brigade": null, "Link": null }, "geometry": { "type": "Point", "coordinates": [ -11635387.902788238599896, 3947789.949048530776054 ] } }
,
{ "type": "Feature", "id": 141, "properties": { "NAME": "Clovis", "LATITUDE": 34.405069192500001, "LONGITUDE": -103.20477055, "brigade": null, "Link": null }, "geometry": { "type": "Point", "coordinates": [ -11488702.505099387839437, 4083323.476687723305076 ] } }
,
{ "type": "Feature", "id": 142, "properties": { "NAME": "Las Cruces", "LATITUDE": 32.312612934400001, "LONGITUDE": -106.77780827, "brigade": null, "Link": null }, "geometry": { "type": "Point", "coordinates": [ -11886451.244646098464727, 3804416.248652964364737 ] } }
,
{ "type": "Feature", "id": 143, "properties": { "NAME": "Hobbs", "LATITUDE": 32.712614358499998, "LONGITUDE": -103.14061426, "brigade": null, "Link": null }, "geometry": { "type": "Point", "coordinates": [ -11481560.659488547593355, 3857220.158433376345783 ] } }
,
{ "type": "Feature", "id": 144, "properties": { "NAME": "Socorro", "LATITUDE": 34.062118549600001, "LONGITUDE": -106.898989504, "brigade": null, "Link": null }, "geometry": { "type": "Point", "coordinates": [ -11899941.077878, 4037146.082602668087929 ] } }
,
{ "type": "Feature", "id": 145, "properties": { "NAME": "Gallup", "LATITUDE": 35.524070657400003, "LONGITUDE": -108.733993776, "brigade": null, "Link": null }, "geometry": { "type": "Point", "coordinates": [ -12104212.819092644378543, 4235330.298631573095918 ] } }
,
{ "type": "Feature", "id": 146, "properties": { "NAME": "Raton", "LATITUDE": 36.897397683800001, "LONGITUDE": -104.439888959, "brigade": null, "Link": null }, "geometry": { "type": "Point", "coordinates": [ -11626195.257370501756668, 4424814.980600886046886 ] } }
,
{ "type": "Feature", "id": 147, "properties": { "NAME": "Tucumcari", "LATITUDE": 35.169802875800002, "LONGITUDE": -103.725513959, "brigade": null, "Link": null }, "geometry": { "type": "Point", "coordinates": [ -11546671.396134743466973, 4186980.686245354823768 ] } }
,
{ "type": "Feature", "id": 148, "properties": { "NAME": "Carlsbad", "LATITUDE": 32.4205650014, "LONGITUDE": -104.228299807, "brigade": null, "Link": null }, "geometry": { "type": "Point", "coordinates": [ -11602641.260710356757045, 3818643.811788104940206 ] } }
,
{ "type": "Feature", "id": 149, "properties": { "NAME": "Alamogordo", "LATITUDE": 32.899476337700001, "LONGITUDE": -105.95971867, "brigade": null, "Link": null }, "geometry": { "type": "Point", "coordinates": [ -11795381.926993936300278, 3881968.717101902235299 ] } }
,
{ "type": "Feature", "id": 150, "properties": { "NAME": "Springfield", "LATITUDE": 44.051948058100002, "LONGITUDE": -122.978033897, "brigade": null, "Link": null }, "geometry": { "type": "Point", "coordinates": [ -13689852.112145623192191, 5473484.787450089119375 ] } }
,
{ "type": "Feature", "id": 151, "properties": { "NAME": "Tillamook", "LATITUDE": 45.455247415199999, "LONGITUDE": -123.842503094, "brigade": null, "Link": null }, "geometry": { "type": "Point", "coordinates": [ -13786084.383028334006667, 5693477.880331393331289 ] } }
,
{ "type": "Feature", "id": 152, "properties": { "NAME": "Ontario", "LATITUDE": 44.026626606299999, "LONGITUDE": -116.961889488, "brigade": null, "Link": null }, "geometry": { "type": "Point", "coordinates": [ -13020137.979974277317524, 5469563.636996454559267 ] } }
,
{ "type": "Feature", "id": 153, "properties": { "NAME": "La Grande", "LATITUDE": 45.324686909100002, "LONGITUDE": -118.086601198, "brigade": null, "Link": null }, "geometry": { "type": "Point", "coordinates": [ -13145340.314889324828982, 5672782.451426579616964 ] } }
,
{ "type": "Feature", "id": 154, "properties": { "NAME": "Roseburg", "LATITUDE": 43.218433043499999, "LONGITUDE": -123.356098675, "brigade": null, "Link": null }, "geometry": { "type": "Point", "coordinates": [ -13731938.09079153649509, 5345278.90428567212075 ] } }
,
{ "type": "Feature", "id": 155, "properties": { "NAME": "Pendleton", "LATITUDE": 45.672598489499997, "LONGITUDE": -118.787488649, "brigade": null, "Link": null }, "geometry": { "type": "Point", "coordinates": [ -13223362.749057484790683, 5728037.234127744100988 ] } }
,
{ "type": "Feature", "id": 156, "properties": { "NAME": "John Day", "LATITUDE": 44.416525288, "LONGITUDE": -118.95202641, "brigade": null, "Link": null }, "geometry": { "type": "Point", "coordinates": [ -13241679.008763419464231, 5530128.326501463539898 ] } }
,
{ "type": "Feature", "id": 157, "properties": { "NAME": "Grants Pass", "LATITUDE": 42.439540017799999, "LONGITUDE": -123.327185712, "brigade": null, "Link": null }, "geometry": { "type": "Point", "coordinates": [ -13728719.514376496896148, 5227049.505278402008116 ] } }
,
{ "type": "Feature", "id": 158, "properties": { "NAME": "Corvallis", "LATITUDE": 44.572355569499997, "LONGITUDE": -123.279979291, "brigade": null, "Link": null }, "geometry": { "type": "Point", "coordinates": [ -13723464.519639892503619, 5554447.006459449417889 ] } }
,
{ "type": "Feature", "id": 159, "properties": { "NAME": "Albany", "LATITUDE": 44.620492166200002, "LONGITUDE": -123.086941978, "brigade": null, "Link": null }, "geometry": { "type": "Point", "coordinates": [ -13701975.704271964728832, 5561972.309976826421916 ] } }
,
{ "type": "Feature", "id": 160, "properties": { "NAME": "Astoria", "LATITUDE": 46.1883809602, "LONGITUDE": -123.829997398, "brigade": null, "Link": null }, "geometry": { "type": "Point", "coordinates": [ -13784692.255249183624983, 5810588.963389718905091 ] } }
,
{ "type": "Feature", "id": 161, "properties": { "NAME": "Medford", "LATITUDE": 42.326627013200003, "LONGITUDE": -122.87442265, "brigade": null, "Link": null }, "geometry": { "type": "Point", "coordinates": [ -13678318.16091750562191, 5210032.854898461140692 ] } }
,
{ "type": "Feature", "id": 162, "properties": { "NAME": "Klamath Falls", "LATITUDE": 42.225005309099998, "LONGITUDE": -121.780535931, "brigade": null, "Link": null }, "geometry": { "type": "Point", "coordinates": [ -13556547.248400235548615, 5194743.96526986733079 ] } }
,
{ "type": "Feature", "id": 163, "properties": { "NAME": "Richfield", "LATITUDE": 38.772477029500003, "LONGITUDE": -112.083298382, "brigade": null, "Link": null }, "geometry": { "type": "Point", "coordinates": [ -12477055.702358968555927, 4689133.06243413221091 ] } }
,
{ "type": "Feature", "id": 164, "properties": { "NAME": "Nephi", "LATITUDE": 39.710275084499997, "LONGITUDE": -111.835484051, "brigade": null, "Link": null }, "geometry": { "type": "Point", "coordinates": [ -12449469.137214567512274, 4823929.134255951270461 ] } }
,
{ "type": "Feature", "id": 165, "properties": { "NAME": "Logan", "LATITUDE": 41.735939553900003, "LONGITUDE": -111.833597862, "brigade": null, "Link": null }, "geometry": { "type": "Point", "coordinates": [ -12449259.167528875172138, 5121506.175115057267249 ] } }
,
{ "type": "Feature", "id": 166, "properties": { "NAME": "Parowan", "LATITUDE": 37.842533792200001, "LONGITUDE": -112.827206463, "brigade": null, "Link": null }, "geometry": { "type": "Point", "coordinates": [ -12559867.171139309182763, 4557204.938839111477137 ] } }
,
{ "type": "Feature", "id": 167, "properties": { "NAME": "Kanab", "LATITUDE": 37.047388528500001, "LONGITUDE": -112.525493614, "brigade": null, "Link": null }, "geometry": { "type": "Point", "coordinates": [ -12526280.650318633764982, 4445714.197007086127996 ] } }
,
{ "type": "Feature", "id": 168, "properties": { "NAME": "Monticello", "LATITUDE": 37.8717826528, "LONGITUDE": -109.342199546, "brigade": null, "Link": null }, "geometry": { "type": "Point", "coordinates": [ -12171917.975690901279449, 4561328.802387123927474 ] } }
,
{ "type": "Feature", "id": 169, "properties": { "NAME": "Moab", "LATITUDE": 38.573703632700003, "LONGITUDE": -109.549189496, "brigade": null, "Link": null }, "geometry": { "type": "Point", "coordinates": [ -12194959.991473589092493, 4660790.934662939049304 ] } }
,
{ "type": "Feature", "id": 170, "properties": { "NAME": "Price", "LATITUDE": 39.599790872200003, "LONGITUDE": -110.810016929, "brigade": null, "Link": null }, "geometry": { "type": "Point", "coordinates": [ -12335314.659323761239648, 4807954.279615016654134 ] } }
,
{ "type": "Feature", "id": 171, "properties": { "NAME": "Cedar City", "LATITUDE": 37.677427591, "LONGITUDE": -113.061093996, "brigade": null, "Link": null }, "geometry": { "type": "Point", "coordinates": [ -12585903.412166, 4533956.836888941004872 ] } }
,
{ "type": "Feature", "id": 172, "properties": { "NAME": "Vernal", "LATITUDE": 40.455397561700003, "LONGITUDE": -109.528002158, "brigade": null, "Link": null }, "geometry": { "type": "Point", "coordinates": [ -12192601.427880803123116, 4932341.779101452790201 ] } }
,
{ "type": "Feature", "id": 173, "properties": { "NAME": "Ogden", "LATITUDE": 41.232378559399997, "LONGITUDE": -111.9680341, "brigade": null, "Link": null }, "geometry": { "type": "Point", "coordinates": [ -12464224.541154801845551, 5046678.10692342557013 ] } }
,
{ "type": "Feature", "id": 174, "properties": { "NAME": "St. George", "LATITUDE": 37.104155089400003, "LONGITUDE": -113.583336021, "brigade": null, "Link": null }, "geometry": { "type": "Point", "coordinates": [ -12644039.128431089222431, 4453634.624248665757477 ] } }
,
{ "type": "Feature", "id": 175, "properties": { "NAME": "Provo", "LATITUDE": 40.248898538299997, "LONGITUDE": -111.637770021, "brigade": null, "Link": null }, "geometry": { "type": "Point", "coordinates": [ -12427459.7121, 4902177.732536289840937 ] } }
,
{ "type": "Feature", "id": 176, "properties": { "NAME": "Lander", "LATITUDE": 42.833004373199998, "LONGITUDE": -108.732598513, "brigade": null, "Link": null }, "geometry": { "type": "Point", "coordinates": [ -12104057.499051179736853, 5286587.854187131859362 ] } }
,
{ "type": "Feature", "id": 177, "properties": { "NAME": "Powell", "LATITUDE": 44.758674946200003, "LONGITUDE": -108.758436729, "brigade": null, "Link": null }, "geometry": { "type": "Point", "coordinates": [ -12106933.796115545555949, 5583609.468734965659678 ] } }
,
{ "type": "Feature", "id": 178, "properties": { "NAME": "Green River", "LATITUDE": 41.514557718, "LONGITUDE": -109.464982749, "brigade": null, "Link": null }, "geometry": { "type": "Point", "coordinates": [ -12185586.139340804889798, 5088537.648964770138264 ] } }
,
{ "type": "Feature", "id": 179, "properties": { "NAME": "Rawlins", "LATITUDE": 41.790664895699997, "LONGITUDE": -107.234292035, "brigade": null, "Link": null }, "geometry": { "type": "Point", "coordinates": [ -11937266.784882351756096, 5129673.456588909029961 ] } }
,
{ "type": "Feature", "id": 180, "properties": { "NAME": "Douglas", "LATITUDE": 42.756471577, "LONGITUDE": -105.384534141, "brigade": null, "Link": null }, "geometry": { "type": "Point", "coordinates": [ -11731352.678043950349092, 5274977.49240505322814 ] } }
,
{ "type": "Feature", "id": 181, "properties": { "NAME": "Riverton", "LATITUDE": 43.028160419800003, "LONGITUDE": -108.395048057, "brigade": null, "Link": null }, "geometry": { "type": "Point", "coordinates": [ -12066481.554202219471335, 5316259.132710702717304 ] } }
,
{ "type": "Feature", "id": 182, "properties": { "NAME": "Thermopolis", "LATITUDE": 43.645978006100002, "LONGITUDE": -108.21467147, "brigade": null, "Link": null }, "geometry": { "type": "Point", "coordinates": [ -12046402.124395828694105, 5410818.920071030966938 ] } }
,
{ "type": "Feature", "id": 183, "properties": { "NAME": "Gillette", "LATITUDE": 44.283174254400002, "LONGITUDE": -105.505250287, "brigade": null, "Link": null }, "geometry": { "type": "Point", "coordinates": [ -11744790.73792870156467, 5509369.140097515657544 ] } }
,
{ "type": "Feature", "id": 184, "properties": { "NAME": "Laramie", "LATITUDE": 41.311365986200002, "LONGITUDE": -105.590568076, "brigade": null, "Link": null }, "geometry": { "type": "Point", "coordinates": [ -11754288.270835258066654, 5058377.124586192891002 ] } }
,
{ "type": "Feature", "id": 185, "properties": { "NAME": "Paragould", "LATITUDE": 36.057087218299998, "LONGITUDE": -90.502884360500005, "brigade": null, "Link": null }, "geometry": { "type": "Point", "coordinates": [ -10074735.00233343988657, 4308479.331062731333077 ] } }
,
{ "type": "Feature", "id": 186, "properties": { "NAME": "Jonesboro", "LATITUDE": 35.8425783478, "LONGITUDE": -90.704164064300002, "brigade": null, "Link": null }, "geometry": { "type": "Point", "coordinates": [ -10097141.35646491125226, 4278981.959321628324687 ] } }
,
{ "type": "Feature", "id": 187, "properties": { "NAME": "Texarkana", "LATITUDE": 33.442104715, "LONGITUDE": -94.037474814600003, "brigade": null, "Link": null }, "geometry": { "type": "Point", "coordinates": [ -10468203.811848383396864, 3954134.075172427576035 ] } }
,
{ "type": "Feature", "id": 188, "properties": { "NAME": "Pine Bluff", "LATITUDE": 34.228697529100003, "LONGITUDE": -92.003051189900006, "brigade": null, "Link": null }, "geometry": { "type": "Point", "coordinates": [ -10241732.809890899807215, 4059552.011384724173695 ] } }
,
{ "type": "Feature", "id": 189, "properties": { "NAME": "Hot Springs", "LATITUDE": 34.503952045699997, "LONGITUDE": -93.055002483899997, "brigade": null, "Link": null }, "geometry": { "type": "Point", "coordinates": [ -10358835.49227269180119, 4096672.878775183577091 ] } }
,
{ "type": "Feature", "id": 190, "properties": { "NAME": "Fort Smith", "LATITUDE": 35.386223774199998, "LONGITUDE": -94.398357179499996, "brigade": null, "Link": null }, "geometry": { "type": "Point", "coordinates": [ -10508377.052946465089917, 4216492.071182385087013 ] } }
,
{ "type": "Feature", "id": 191, "properties": { "NAME": "Fayetteville", "LATITUDE": 36.062978331499998, "LONGITUDE": -94.157209108199993, "brigade": null, "Link": null }, "geometry": { "type": "Point", "coordinates": [ -10481532.572444681078196, 4309290.557156296446919 ] } }
,
{ "type": "Feature", "id": 192, "properties": { "NAME": "Conway", "LATITUDE": 35.091280536900001, "LONGITUDE": -92.451318401799995, "brigade": null, "Link": null }, "geometry": { "type": "Point", "coordinates": [ -10291633.687660697847605, 4176292.733730202540755 ] } }
,
{ "type": "Feature", "id": 193, "properties": { "NAME": "El Dorado", "LATITUDE": 33.213927428200002, "LONGITUDE": -92.662519980599996, "brigade": null, "Link": null }, "geometry": { "type": "Point", "coordinates": [ -10315144.539864873513579, 3923733.79867220390588 ] } }
,
{ "type": "Feature", "id": 194, "properties": { "NAME": "Little Rock", "LATITUDE": 34.736082579600001, "LONGITUDE": -92.331093182100005, "brigade": null, "Link": null }, "geometry": { "type": "Point", "coordinates": [ -10278250.277420172467828, 4128073.408930947538465 ] } }
,
{ "type": "Feature", "id": 195, "properties": { "NAME": "Iowa City", "LATITUDE": 41.661086241699998, "LONGITUDE": -91.529979290499995, "brigade": null, "Link": null }, "geometry": { "type": "Point", "coordinates": [ -10189070.686939306557178, 5110346.22958542779088 ] } }
,
{ "type": "Feature", "id": 196, "properties": { "NAME": "Ottumwa", "LATITUDE": 41.012882913299997, "LONGITUDE": -92.414809002400006, "brigade": null, "Link": null }, "geometry": { "type": "Point", "coordinates": [ -10287569.479908743873239, 5014242.076361258514225 ] } }
,
{ "type": "Feature", "id": 197, "properties": { "NAME": "Davenport", "LATITUDE": 41.553986835800004, "LONGITUDE": -90.587530356599999, "brigade": null, "Link": null }, "geometry": { "type": "Point", "coordinates": [ -10084157.751516342163086, 5094401.219086057506502 ] } }
,
{ "type": "Feature", "id": 198, "properties": { "NAME": "Burlington", "LATITUDE": 40.807934182799997, "LONGITUDE": -91.112769614399994, "brigade": null, "Link": null }, "geometry": { "type": "Point", "coordinates": [ -10142627.11824089102447, 4984053.143190787173808 ] } }
,
{ "type": "Feature", "id": 199, "properties": { "NAME": "Dubuque", "LATITUDE": 42.500931619299998, "LONGITUDE": -90.6644507261, "brigade": null, "Link": null }, "geometry": { "type": "Point", "coordinates": [ -10092720.487876977771521, 5236314.447625804692507 ] } }
,
{ "type": "Feature", "id": 200, "properties": { "NAME": "Waterloo", "LATITUDE": 42.4931543163, "LONGITUDE": -92.342797894, "brigade": null, "Link": null }, "geometry": { "type": "Point", "coordinates": [ -10279553.239990333095193, 5235140.229411831125617 ] } }
,
{ "type": "Feature", "id": 201, "properties": { "NAME": "Spencer", "LATITUDE": 43.145285053599999, "LONGITUDE": -95.147174521699995, "brigade": null, "Link": null }, "geometry": { "type": "Point", "coordinates": [ -10591735.018169036135077, 5334111.923599130474031 ] } }
,
{ "type": "Feature", "id": 202, "properties": { "NAME": "Ft. Dodge", "LATITUDE": 42.5068227326, "LONGITUDE": -94.180256797, "brigade": null, "Link": null }, "geometry": { "type": "Point", "coordinates": [ -10484098.22942610271275, 5237203.985886493697762 ] } }
,
{ "type": "Feature", "id": 203, "properties": { "NAME": "Sioux City", "LATITUDE": 42.5003890168, "LONGITUDE": -96.399992107900005, "brigade": null, "Link": null }, "geometry": { "type": "Point", "coordinates": [ -10731198.033929254859686, 5236232.520685661584139 ] } }
,
{ "type": "Feature", "id": 204, "properties": { "NAME": "Council Bluffs", "LATITUDE": 41.262273375500001, "LONGITUDE": -95.860800213399997, "brigade": null, "Link": null }, "geometry": { "type": "Point", "coordinates": [ -10671175.466789929196239, 5051104.235426452942193 ] } }
,
{ "type": "Feature", "id": 205, "properties": { "NAME": "Ames", "LATITUDE": 42.053852965399997, "LONGITUDE": -93.619722536, "brigade": null, "Link": null }, "geometry": { "type": "Point", "coordinates": [ -10421699.840911598876119, 5169049.773717697709799 ] } }
,
{ "type": "Feature", "id": 206, "properties": { "NAME": "Mason City", "LATITUDE": 43.154018370599999, "LONGITUDE": -93.200833375800002, "brigade": null, "Link": null }, "geometry": { "type": "Point", "coordinates": [ -10375069.312904, 5335444.47367758769542 ] } }
,
{ "type": "Feature", "id": 207, "properties": { "NAME": "Hutchinson", "LATITUDE": 38.065491759300002, "LONGITUDE": -97.923490846500002, "brigade": null, "Link": null }, "geometry": { "type": "Point", "coordinates": [ -10900793.137735823169351, 4588681.737577063962817 ] } }
,
{ "type": "Feature", "id": 208, "properties": { "NAME": "Kansas City", "LATITUDE": 39.113580516900001, "LONGITUDE": -94.630146377100004, "brigade": null, "Link": null }, "geometry": { "type": "Point", "coordinates": [ -10534179.708394356071949, 4737954.090228102169931 ] } }
,
{ "type": "Feature", "id": 209, "properties": { "NAME": "Lawrence", "LATITUDE": 38.959752420100003, "LONGITUDE": -95.255229941600007, "brigade": null, "Link": null }, "geometry": { "type": "Point", "coordinates": [ -10603763.692492242902517, 4715908.090702942572534 ] } }
,
{ "type": "Feature", "id": 210, "properties": { "NAME": "Garden City", "LATITUDE": 37.975213032100001, "LONGITUDE": -100.86408655, "brigade": null, "Link": null }, "geometry": { "type": "Point", "coordinates": [ -11228138.754037907347083, 4575924.837133079767227 ] } }
,
{ "type": "Feature", "id": 211, "properties": { "NAME": "Manhattan", "LATITUDE": 39.194027525899997, "LONGITUDE": -96.592435141799996, "brigade": null, "Link": null }, "geometry": { "type": "Point", "coordinates": [ -10752620.694464700296521, 4749502.581579460762441 ] } }
,
{ "type": "Feature", "id": 212, "properties": { "NAME": "Hays", "LATITUDE": 38.879369729700002, "LONGITUDE": -99.322191001199997, "brigade": null, "Link": null }, "geometry": { "type": "Point", "coordinates": [ -11056495.726721484214067, 4704407.021777682937682 ] } }
,
{ "type": "Feature", "id": 213, "properties": { "NAME": "Goodland", "LATITUDE": 39.348488382, "LONGITUDE": -101.711037437, "brigade": null, "Link": null }, "geometry": { "type": "Point", "coordinates": [ -11322420.895510960370302, 4771713.189094360917807 ] } }
,
{ "type": "Feature", "id": 214, "properties": { "NAME": "Emporia", "LATITUDE": 38.404230773, "LONGITUDE": -96.181374961100005, "brigade": null, "Link": null }, "geometry": { "type": "Point", "coordinates": [ -10706861.684467604383826, 4636688.503541093319654 ] } }
,
{ "type": "Feature", "id": 215, "properties": { "NAME": "Salina", "LATITUDE": 38.824670226099997, "LONGITUDE": -97.607179404500002, "brigade": null, "Link": null }, "geometry": { "type": "Point", "coordinates": [ -10865581.509073788300157, 4696588.113388629630208 ] } }
,
{ "type": "Feature", "id": 216, "properties": { "NAME": "Dodge City", "LATITUDE": 37.7600582062, "LONGITUDE": -100.018195029, "brigade": null, "Link": null }, "geometry": { "type": "Point", "coordinates": [ -11133974.540744479745626, 4545585.316202151589096 ] } }
,
{ "type": "Feature", "id": 217, "properties": { "NAME": "Coffeyville", "LATITUDE": 37.038060932500002, "LONGITUDE": -95.626318401899994, "brigade": null, "Link": null }, "geometry": { "type": "Point", "coordinates": [ -10645073.070930760353804, 4444413.31906224694103 ] } }
,
{ "type": "Feature", "id": 218, "properties": { "NAME": "Wichita", "LATITUDE": 37.719983133, "LONGITUDE": -97.329987021700006, "brigade": null, "Link": null }, "geometry": { "type": "Point", "coordinates": [ -10834724.59416720457375, 4539943.992955481633544 ] } }
,
{ "type": "Feature", "id": 219, "properties": { "NAME": "St. Charles", "LATITUDE": 38.784285094200001, "LONGITUDE": -90.506165814, "brigade": null, "Link": null }, "geometry": { "type": "Point", "coordinates": [ -10075100.292060628533363, 4690819.197668734006584 ] } }
,
{ "type": "Feature", "id": 220, "properties": { "NAME": "Poplar Bluff", "LATITUDE": 36.760196756, "LONGITUDE": -90.4026837583, "brigade": null, "Link": null }, "geometry": { "type": "Point", "coordinates": [ -10063580.722317818552256, 4405733.809981391765177 ] } }
,
{ "type": "Feature", "id": 221, "properties": { "NAME": "Independence", "LATITUDE": 39.091113911, "LONGITUDE": -94.415281211099995, "brigade": null, "Link": null }, "geometry": { "type": "Point", "coordinates": [ -10510261.027523633092642, 4734731.274660678580403 ] } }
,
{ "type": "Feature", "id": 222, "properties": { "NAME": "Kirksville", "LATITUDE": 40.193682270399997, "LONGITUDE": -92.582809083800001, "brigade": null, "Link": null }, "geometry": { "type": "Point", "coordinates": [ -10306271.163421282544732, 4894127.705631067976356 ] } }
,
{ "type": "Feature", "id": 223, "properties": { "NAME": "Joplin", "LATITUDE": 37.084595559699999, "LONGITUDE": -94.513078859199993, "brigade": null, "Link": null }, "geometry": { "type": "Point", "coordinates": [ -10521147.811912281438708, 4450904.886114588007331 ] } }
,
{ "type": "Feature", "id": 224, "properties": { "NAME": "Columbia", "LATITUDE": 38.952078469900002, "LONGITUDE": -92.333909547700003, "brigade": null, "Link": null }, "geometry": { "type": "Point", "coordinates": [ -10278563.793800178915262, 4714809.547318950295448 ] } }
,
{ "type": "Feature", "id": 225, "properties": { "NAME": "St. Joseph", "LATITUDE": 39.769031188, "LONGITUDE": -94.846391847500001, "brigade": null, "Link": null }, "geometry": { "type": "Point", "coordinates": [ -10558252.044042680412531, 4832435.068538464605808 ] } }
,
{ "type": "Feature", "id": 226, "properties": { "NAME": "Jefferson City", "LATITUDE": 38.576623351099997, "LONGITUDE": -92.173325034300007, "brigade": null, "Link": null }, "geometry": { "type": "Point", "coordinates": [ -10260687.607545118778944, 4661206.674465372227132 ] } }
,
{ "type": "Feature", "id": 227, "properties": { "NAME": "Kearney", "LATITUDE": 40.700705585800002, "LONGITUDE": -99.081146282700004, "brigade": null, "Link": null }, "geometry": { "type": "Point", "coordinates": [ -11029662.751407964155078, 4968295.534342805854976 ] } }
,
{ "type": "Feature", "id": 228, "properties": { "NAME": "Grand Island", "LATITUDE": 40.922268289199998, "LONGITUDE": -98.357986289199999, "brigade": null, "Link": null }, "geometry": { "type": "Point", "coordinates": [ -10949160.94917031750083, 5000883.006235210224986 ] } }
,
{ "type": "Feature", "id": 229, "properties": { "NAME": "Alliance", "LATITUDE": 42.101395283099997, "LONGITUDE": -102.870191489, "brigade": null, "Link": null }, "geometry": { "type": "Point", "coordinates": [ -11451457.334412824362516, 5176180.087435861118138 ] } }
,
{ "type": "Feature", "id": 230, "properties": { "NAME": "McCook", "LATITUDE": 40.205593688, "LONGITUDE": -100.626168255, "brigade": null, "Link": null }, "geometry": { "type": "Point", "coordinates": [ -11201653.810669163241982, 4895863.726535559631884 ] } }
,
{ "type": "Feature", "id": 231, "properties": { "NAME": "Norfolk", "LATITUDE": 42.028712381, "LONGITUDE": -97.433598268400004, "brigade": null, "Link": null }, "geometry": { "type": "Point", "coordinates": [ -10846258.545395333319902, 5165281.390287915244699 ] } }
,
{ "type": "Feature", "id": 232, "properties": { "NAME": "North Platte", "LATITUDE": 41.136286233600003, "LONGITUDE": -100.770500531, "brigade": null, "Link": null }, "geometry": { "type": "Point", "coordinates": [ -11217720.806070754304528, 5032464.682768012396991 ] } }
,
{ "type": "Feature", "id": 233, "properties": { "NAME": "Sidney", "LATITUDE": 41.139800231, "LONGITUDE": -102.978272748, "brigade": null, "Link": null }, "geometry": { "type": "Point", "coordinates": [ -11463488.885033091530204, 5032984.085916075855494 ] } }
,
{ "type": "Feature", "id": 234, "properties": { "NAME": "Scottsbluff", "LATITUDE": 41.867507750500003, "LONGITUDE": -103.660685874, "brigade": null, "Link": null }, "geometry": { "type": "Point", "coordinates": [ -11539454.766800230368972, 5141153.362931792624295 ] } }
,
{ "type": "Feature", "id": 235, "properties": { "NAME": "Chadron", "LATITUDE": 42.827914244699997, "LONGITUDE": -103.003077435, "brigade": null, "Link": null }, "geometry": { "type": "Point", "coordinates": [ -11466250.130214899778366, 5285815.213316645473242 ] } }
,
{ "type": "Feature", "id": 236, "properties": { "NAME": "Bartlesville", "LATITUDE": 36.747200133299998, "LONGITUDE": -95.980586183400007, "brigade": null, "Link": null }, "geometry": { "type": "Point", "coordinates": [ -10684509.979980368167162, 4403928.081071672029793 ] } }
,
{ "type": "Feature", "id": 237, "properties": { "NAME": "Enid", "LATITUDE": 36.3955420116, "LONGITUDE": -97.878093100800001, "brigade": null, "Link": null }, "geometry": { "type": "Point", "coordinates": [ -10895739.483793733641505, 4355184.728016875684261 ] } }
,
{ "type": "Feature", "id": 238, "properties": { "NAME": "Ardmore", "LATITUDE": 34.181077696800003, "LONGITUDE": -97.129404949700003, "brigade": null, "Link": null }, "geometry": { "type": "Point", "coordinates": [ -10812395.900056481361389, 4053142.329786679241806 ] } }
,
{ "type": "Feature", "id": 239, "properties": { "NAME": "McAlester", "LATITUDE": 34.9329956248, "LONGITUDE": -95.765973960099998, "brigade": null, "Link": null }, "geometry": { "type": "Point", "coordinates": [ -10660619.456563683226705, 4154779.241110828239471 ] } }
,
{ "type": "Feature", "id": 240, "properties": { "NAME": "Stillwater", "LATITUDE": 36.135351175, "LONGITUDE": -97.0682975685, "brigade": null, "Link": null }, "geometry": { "type": "Point", "coordinates": [ -10805593.457499235868454, 4319261.503205916844308 ] } }
,
{ "type": "Feature", "id": 241, "properties": { "NAME": "Lawton", "LATITUDE": 34.599036681100003, "LONGITUDE": -98.409972780100006, "brigade": null, "Link": null }, "geometry": { "type": "Point", "coordinates": [ -10954948.058863831683993, 4109524.456788467243314 ] } }
,
{ "type": "Feature", "id": 242, "properties": { "NAME": "Norman", "LATITUDE": 35.227913023900001, "LONGITUDE": -97.344146364099998, "brigade": null, "Link": null }, "geometry": { "type": "Point", "coordinates": [ -10836300.804958479478955, 4194896.909806081093848 ] } }
,
{ "type": "Feature", "id": 243, "properties": { "NAME": "Muskogee", "LATITUDE": 35.748217182499999, "LONGITUDE": -95.3694348569, "brigade": null, "Link": null }, "geometry": { "type": "Point", "coordinates": [ -10616476.925516771152616, 4266031.522381210699677 ] } }
,
{ "type": "Feature", "id": 244, "properties": { "NAME": "Ponca City", "LATITUDE": 36.707357604, "LONGITUDE": -97.085273276500004, "brigade": null, "Link": null }, "geometry": { "type": "Point", "coordinates": [ -10807483.184670532122254, 4398394.331910282373428 ] } }
,
{ "type": "Feature", "id": 245, "properties": { "NAME": "Shawnee", "LATITUDE": 35.342789732900002, "LONGITUDE": -96.933783815300004, "brigade": null, "Link": null }, "geometry": { "type": "Point", "coordinates": [ -10790619.454982113093138, 4210563.026785923168063 ] } }
,
{ "type": "Feature", "id": 246, "properties": { "NAME": "Woodward", "LATITUDE": 36.433420836400003, "LONGITUDE": -99.397690268700003, "brigade": null, "Link": null }, "geometry": { "type": "Point", "coordinates": [ -11064900.266743587329984, 4360424.472306455485523 ] } }
,
{ "type": "Feature", "id": 247, "properties": { "NAME": "Guymon", "LATITUDE": 36.685808531699998, "LONGITUDE": -101.479501182, "brigade": null, "Link": null }, "geometry": { "type": "Point", "coordinates": [ -11296646.397517122328281, 4395402.565852930769324 ] } }
,
{ "type": "Feature", "id": 248, "properties": { "NAME": "Lead", "LATITUDE": 44.350844542499999, "LONGITUDE": -103.765769899, "brigade": null, "Link": null }, "geometry": { "type": "Point", "coordinates": [ -11551152.666961038485169, 5519897.689900731667876 ] } }
,
{ "type": "Feature", "id": 249, "properties": { "NAME": "Yankton", "LATITUDE": 42.882019469299998, "LONGITUDE": -97.392489666499998, "brigade": null, "Link": null }, "geometry": { "type": "Point", "coordinates": [ -10841682.35676590912044, 5294031.213661423884332 ] } }
,
{ "type": "Feature", "id": 250, "properties": { "NAME": "Brookings", "LATITUDE": 44.3067645458, "LONGITUDE": -96.788030438, "brigade": null, "Link": null }, "geometry": { "type": "Point", "coordinates": [ -10774394.2632, 5513038.080937816761434 ] } }
,
{ "type": "Feature", "id": 251, "properties": { "NAME": "Mitchell", "LATITUDE": 43.7142942495, "LONGITUDE": -98.026197755699997, "brigade": null, "Link": null }, "geometry": { "type": "Point", "coordinates": [ -10912226.418566707521677, 5421334.491213676519692 ] } }
,
{ "type": "Feature", "id": 252, "properties": { "NAME": "Aberdeen", "LATITUDE": 45.465117613799997, "LONGITUDE": -98.486402223499994, "brigade": null, "Link": null }, "geometry": { "type": "Point", "coordinates": [ -10963456.145580247044563, 5695044.373084895312786 ] } }
,
{ "type": "Feature", "id": 253, "properties": { "NAME": "Mobridge", "LATITUDE": 45.540125955299999, "LONGITUDE": -100.434707074, "brigade": null, "Link": null }, "geometry": { "type": "Point", "coordinates": [ -11180340.449422165751457, 5706957.870979282073677 ] } }
,
{ "type": "Feature", "id": 254, "properties": { "NAME": "Rapid City", "LATITUDE": 44.0805509634, "LONGITUDE": -103.23055709, "brigade": null, "Link": null }, "geometry": { "type": "Point", "coordinates": [ -11491573.049569623544812, 5477916.104012509807944 ] } }
,
{ "type": "Feature", "id": 255, "properties": { "NAME": "Slidell", "LATITUDE": 30.274959532699999, "LONGITUDE": -89.781093792500002, "brigade": null, "Link": null }, "geometry": { "type": "Point", "coordinates": [ -9994385.643840216100216, 3538942.517101930454373 ] } }
,
{ "type": "Feature", "id": 256, "properties": { "NAME": "Lake Charles", "LATITUDE": 30.2263836863, "LONGITUDE": -93.217188966600006, "brigade": null, "Link": null }, "geometry": { "type": "Point", "coordinates": [ -10376890.008945750072598, 3532682.672853619791567 ] } }
,
{ "type": "Feature", "id": 257, "properties": { "NAME": "Metairie", "LATITUDE": 29.9838661896, "LONGITUDE": -90.152776531699999, "brigade": null, "Link": null }, "geometry": { "type": "Point", "coordinates": [ -10035761.177111206576228, 3501476.16114099835977 ] } }
,
{ "type": "Feature", "id": 258, "properties": { "NAME": "New Iberia", "LATITUDE": 30.003580748499999, "LONGITUDE": -91.818307944500006, "brigade": null, "Link": null }, "geometry": { "type": "Point", "coordinates": [ -10221167.285880647599697, 3504010.123642384074628 ] } }
,
{ "type": "Feature", "id": 259, "properties": { "NAME": "Houma", "LATITUDE": 29.5959312124, "LONGITUDE": -90.719486126500001, "brigade": null, "Link": null }, "geometry": { "type": "Point", "coordinates": [ -10098847.000624081119895, 3451715.593566775787622 ] } }
,
{ "type": "Feature", "id": 260, "properties": { "NAME": "Monroe", "LATITUDE": 32.509603494300002, "LONGITUDE": -92.119193971499996, "brigade": null, "Link": null }, "geometry": { "type": "Point", "coordinates": [ -10254661.765195248648524, 3830391.472816895227879 ] } }
,
{ "type": "Feature", "id": 261, "properties": { "NAME": "Lafayette", "LATITUDE": 30.199977029399999, "LONGITUDE": -92.019949383300002, "brigade": null, "Link": null }, "geometry": { "type": "Point", "coordinates": [ -10243613.908171, 3529281.012481455691159 ] } }
,
{ "type": "Feature", "id": 262, "properties": { "NAME": "Galveston", "LATITUDE": 29.3011430044, "LONGITUDE": -94.797480104300007, "brigade": null, "Link": null }, "geometry": { "type": "Point", "coordinates": [ -10552807.213699819520116, 3414030.911109190899879 ] } }
,
{ "type": "Feature", "id": 263, "properties": { "NAME": "Bryan", "LATITUDE": 30.674185810400001, "LONGITUDE": -96.369683880400004, "brigade": null, "Link": null }, "geometry": { "type": "Point", "coordinates": [ -10727824.137472739443183, 3590507.865518349222839 ] } }
,
{ "type": "Feature", "id": 264, "properties": { "NAME": "San Marcos", "LATITUDE": 29.883071308400002, "LONGITUDE": -97.941112509899995, "brigade": null, "Link": null }, "geometry": { "type": "Point", "coordinates": [ -10902754.772333733737469, 3488528.587693143170327 ] } }
,
{ "type": "Feature", "id": 265, "properties": { "NAME": "Longview", "LATITUDE": 32.500534280399997, "LONGITUDE": -94.740274293799999, "brigade": null, "Link": null }, "geometry": { "type": "Point", "coordinates": [ -10546439.091999294236302, 3829194.357071351725608 ] } }
,
{ "type": "Feature", "id": 266, "properties": { "NAME": "McAllen", "LATITUDE": 26.2030375356, "LONGITUDE": -98.229725384299996, "brigade": null, "Link": null }, "geometry": { "type": "Point", "coordinates": [ -10934883.010542772710323, 3024249.821028840728104 ] } }
,
{ "type": "Feature", "id": 267, "properties": { "NAME": "Harlingen", "LATITUDE": 26.1975598338, "LONGITUDE": -97.690197593, "brigade": null, "Link": null }, "geometry": { "type": "Point", "coordinates": [ -10874823.051541617140174, 3023570.221302861813456 ] } }
,
{ "type": "Feature", "id": 268, "properties": { "NAME": "Alice", "LATITUDE": 27.750462462400002, "LONGITUDE": -98.070484458199999, "brigade": null, "Link": null }, "geometry": { "type": "Point", "coordinates": [ -10917156.391735043376684, 3217549.087464768439531 ] } }
,
{ "type": "Feature", "id": 269, "properties": { "NAME": "New Braunfels", "LATITUDE": 29.697811298600001, "LONGITUDE": -98.126320843299993, "brigade": null, "Link": null }, "geometry": { "type": "Point", "coordinates": [ -10923372.06969115883112, 3464765.144712825771421 ] } }
,
{ "type": "Feature", "id": 270, "properties": { "NAME": "Cleburne", "LATITUDE": 32.351525287900003, "LONGITUDE": -97.392489666499998, "brigade": null, "Link": null }, "geometry": { "type": "Point", "coordinates": [ -10841682.35676590912044, 3809542.751812344416976 ] } }
,
{ "type": "Feature", "id": 271, "properties": { "NAME": "Brownwood", "LATITUDE": 31.707895323700001, "LONGITUDE": -98.982315106, "brigade": null, "Link": null }, "geometry": { "type": "Point", "coordinates": [ -11018660.91513673402369, 3725028.12952310172841 ] } }
,
{ "type": "Feature", "id": 272, "properties": { "NAME": "Alpine", "LATITUDE": 30.360716572099999, "LONGITUDE": -103.665000856, "brigade": null, "Link": null }, "geometry": { "type": "Point", "coordinates": [ -11539935.108409974724054, 3550001.375343755818903 ] } }
,
{ "type": "Feature", "id": 273, "properties": { "NAME": "Van Horn", "LATITUDE": 31.0424837433, "LONGITUDE": -104.832242271, "brigade": null, "Link": null }, "geometry": { "type": "Point", "coordinates": [ -11669871.8283, 3638267.696089936885983 ] } }
,
{ "type": "Feature", "id": 274, "properties": { "NAME": "Big Spring", "LATITUDE": 32.243185647600001, "LONGITUDE": -101.4751862, "brigade": null, "Link": null }, "geometry": { "type": "Point", "coordinates": [ -11296166.055907363072038, 3795275.024972233455628 ] } }
,
{ "type": "Feature", "id": 275, "properties": { "NAME": "Vernon", "LATITUDE": 34.151053689599998, "LONGITUDE": -99.290384157099993, "brigade": null, "Link": null }, "geometry": { "type": "Point", "coordinates": [ -11052955.005035251379013, 4049102.925133462995291 ] } }
,
{ "type": "Feature", "id": 276, "properties": { "NAME": "Childress", "LATITUDE": 34.424887104299998, "LONGITUDE": -100.213919517, "brigade": null, "Link": null }, "geometry": { "type": "Point", "coordinates": [ -11155762.49100710824132, 4085997.67230864148587 ] } }
,
{ "type": "Feature", "id": 277, "properties": { "NAME": "Hereford", "LATITUDE": 34.821917133600003, "LONGITUDE": -102.398592368, "brigade": null, "Link": null }, "geometry": { "type": "Point", "coordinates": [ -11398959.160393899306655, 4139706.651355208829045 ] } }
,
{ "type": "Feature", "id": 278, "properties": { "NAME": "Dalhart", "LATITUDE": 36.060807921399999, "LONGITUDE": -102.518610882, "brigade": null, "Link": null }, "geometry": { "type": "Point", "coordinates": [ -11412319.560257907956839, 4308991.677318846806884 ] } }
,
{ "type": "Feature", "id": 279, "properties": { "NAME": "Texas City", "LATITUDE": 29.410877908300002, "LONGITUDE": -94.962767173, "brigade": null, "Link": null }, "geometry": { "type": "Point", "coordinates": [ -10571206.886020610108972, 3428046.251291395165026 ] } }
,
{ "type": "Feature", "id": 280, "properties": { "NAME": "Pasadena", "LATITUDE": 29.6608626495, "LONGITUDE": -95.147742962400002, "brigade": null, "Link": null }, "geometry": { "type": "Point", "coordinates": [ -10591798.296704459935427, 3460030.963175849523395 ] } }
,
{ "type": "Feature", "id": 281, "properties": { "NAME": "Baytown", "LATITUDE": 29.755843932099999, "LONGITUDE": -94.967728110500005, "brigade": null, "Link": null }, "geometry": { "type": "Point", "coordinates": [ -10571759.135056968778372, 3472204.306273573078215 ] } }
,
{ "type": "Feature", "id": 282, "properties": { "NAME": "Grand Prairie", "LATITUDE": 32.684760761500002, "LONGITUDE": -97.020238486500006, "brigade": null, "Link": null }, "geometry": { "type": "Point", "coordinates": [ -10800243.54495950974524, 3853535.591625592671335 ] } }
,
{ "type": "Feature", "id": 283, "properties": { "NAME": "Conroe", "LATITUDE": 30.3120632111, "LONGITUDE": -95.455863689899999, "brigade": null, "Link": null }, "geometry": { "type": "Point", "coordinates": [ -10626098.139197086915374, 3543726.059724527411163 ] } }
,
{ "type": "Feature", "id": 284, "properties": { "NAME": "Nacogdoches", "LATITUDE": 31.6037414744, "LONGITUDE": -94.655266562700007, "brigade": null, "Link": null }, "geometry": { "type": "Point", "coordinates": [ -10536976.074657522141933, 3711407.197204118594527 ] } }
,
{ "type": "Feature", "id": 285, "properties": { "NAME": "Eagle Pass", "LATITUDE": 28.711023985800001, "LONGITUDE": -100.489277386, "brigade": null, "Link": null }, "geometry": { "type": "Point", "coordinates": [ -11186415.18882212229073, 3338917.025719056837261 ] } }
,
{ "type": "Feature", "id": 286, "properties": { "NAME": "Edinburg", "LATITUDE": 26.303186461399999, "LONGITUDE": -98.159962200699994, "brigade": null, "Link": null }, "geometry": { "type": "Point", "coordinates": [ -10927117.008468961343169, 3036680.60150950262323 ] } }
,
{ "type": "Feature", "id": 287, "properties": { "NAME": "Kingsville", "LATITUDE": 27.5159548126, "LONGITUDE": -97.855846396700002, "brigade": null, "Link": null }, "geometry": { "type": "Point", "coordinates": [ -10893262.992021299898624, 3188082.700883902609348 ] } }
,
{ "type": "Feature", "id": 288, "properties": { "NAME": "Port Arthur", "LATITUDE": 29.898987649599999, "LONGITUDE": -93.928592571799996, "brigade": null, "Link": null }, "geometry": { "type": "Point", "coordinates": [ -10456083.09601910226047, 3490572.24459483101964 ] } }
,
{ "type": "Feature", "id": 289, "properties": { "NAME": "Huntsville", "LATITUDE": 30.723769347099999, "LONGITUDE": -95.5505865903, "brigade": null, "Link": null }, "geometry": { "type": "Point", "coordinates": [ -10636642.644235074520111, 3596927.056420947890729 ] } }
,
{ "type": "Feature", "id": 290, "properties": { "NAME": "Killeen", "LATITUDE": 31.117285379, "LONGITUDE": -97.727482138799999, "brigade": null, "Link": null }, "geometry": { "type": "Point", "coordinates": [ -10878973.548205498605967, 3647990.268108499236405 ] } }
,
{ "type": "Feature", "id": 291, "properties": { "NAME": "Lufkin", "LATITUDE": 31.338434671, "LONGITUDE": -94.728879640499997, "brigade": null, "Link": null }, "geometry": { "type": "Point", "coordinates": [ -10545170.644993914291263, 3676779.766268134582788 ] } }
,
{ "type": "Feature", "id": 292, "properties": { "NAME": "Del Rio", "LATITUDE": 29.362948017400001, "LONGITUDE": -100.89638432, "brigade": null, "Link": null }, "geometry": { "type": "Point", "coordinates": [ -11231734.125368373468518, 3421922.789098039269447 ] } }
,
{ "type": "Feature", "id": 293, "properties": { "NAME": "San Angelo", "LATITUDE": 31.464008401499999, "LONGITUDE": -100.436696616, "brigade": null, "Link": null }, "geometry": { "type": "Point", "coordinates": [ -11180561.924296129494905, 3693157.222163637634367 ] } }
,
{ "type": "Feature", "id": 294, "properties": { "NAME": "Sherman", "LATITUDE": 33.635994689, "LONGITUDE": -96.608584026900004, "brigade": null, "Link": null }, "geometry": { "type": "Point", "coordinates": [ -10754418.380129929631948, 3980029.105290648993105 ] } }
,
{ "type": "Feature", "id": 295, "properties": { "NAME": "Beaumont", "LATITUDE": 30.086263040199999, "LONGITUDE": -94.101682781700006, "brigade": null, "Link": null }, "geometry": { "type": "Point", "coordinates": [ -10475351.41005334444344, 3514642.97920736996457 ] } }
,
{ "type": "Feature", "id": 296, "properties": { "NAME": "Bay City", "LATITUDE": 28.981110859200001, "LONGITUDE": -95.964359783700004, "brigade": null, "Link": null }, "geometry": { "type": "Point", "coordinates": [ -10682703.66542393527925, 3373242.090151286683977 ] } }
,
{ "type": "Feature", "id": 297, "properties": { "NAME": "Port Lavaca", "LATITUDE": 28.616016865, "LONGITUDE": -96.629693849500001, "brigade": null, "Link": null }, "geometry": { "type": "Point", "coordinates": [ -10756768.314831519499421, 3326863.774498218670487 ] } }
,
{ "type": "Feature", "id": 298, "properties": { "NAME": "Falfurrias", "LATITUDE": 27.226902688599999, "LONGITUDE": -98.144898520699996, "brigade": null, "Link": null }, "geometry": { "type": "Point", "coordinates": [ -10925440.127280436456203, 3151848.955517310649157 ] } }
,
{ "type": "Feature", "id": 299, "properties": { "NAME": "Beeville", "LATITUDE": 28.405978006, "LONGITUDE": -97.750839886199998, "brigade": null, "Link": null }, "geometry": { "type": "Point", "coordinates": [ -10881573.720751699060202, 3300255.420250242110342 ] } }
,
{ "type": "Feature", "id": 300, "properties": { "NAME": "Fort Stockton", "LATITUDE": 30.891691913900001, "LONGITUDE": -102.884996787, "brigade": null, "Link": null }, "geometry": { "type": "Point", "coordinates": [ -11453105.452630717307329, 3618691.250462007708848 ] } }
,
{ "type": "Feature", "id": 301, "properties": { "NAME": "Pecos", "LATITUDE": 31.415794290200001, "LONGITUDE": -103.499894655, "brigade": null, "Link": null }, "geometry": { "type": "Point", "coordinates": [ -11521555.570168636739254, 3686866.495915858075023 ] } }
,
{ "type": "Feature", "id": 302, "properties": { "NAME": "Dumas", "LATITUDE": 35.862396259599997, "LONGITUDE": -101.966887453, "brigade": null, "Link": null }, "geometry": { "type": "Point", "coordinates": [ -11350901.989042380824685, 4281703.791170102544129 ] } }
,
{ "type": "Feature", "id": 303, "properties": { "NAME": "Denton", "LATITUDE": 33.2157619416, "LONGITUDE": -97.128836509, "brigade": null, "Link": null }, "geometry": { "type": "Point", "coordinates": [ -10812332.621521059423685, 3923977.895754932891577 ] } }
,
{ "type": "Feature", "id": 304, "properties": { "NAME": "Midland", "LATITUDE": 32.030717996200003, "LONGITUDE": -102.097499636, "brigade": null, "Link": null }, "geometry": { "type": "Point", "coordinates": [ -11365441.67070278339088, 3767343.517253532074392 ] } }
,
{ "type": "Feature", "id": 305, "properties": { "NAME": "Temple", "LATITUDE": 31.102092508, "LONGITUDE": -97.363008261900006, "brigade": null, "Link": null }, "geometry": { "type": "Point", "coordinates": [ -10838400.501815468072891, 3646014.90869041159749 ] } }
,
{ "type": "Feature", "id": 306, "properties": { "NAME": "Freeport", "LATITUDE": 28.959484272299999, "LONGITUDE": -95.356877483900007, "brigade": null, "Link": null }, "geometry": { "type": "Point", "coordinates": [ -10615079.045143470168114, 3370490.300581136718392 ] } }
,
{ "type": "Feature", "id": 307, "properties": { "NAME": "Victoria", "LATITUDE": 28.8049975779, "LONGITUDE": -97.003340293099996, "brigade": null, "Link": null }, "geometry": { "type": "Point", "coordinates": [ -10798362.446679409593344, 3350849.930486237630248 ] } }
,
{ "type": "Feature", "id": 308, "properties": { "NAME": "Odessa", "LATITUDE": 31.845561339300001, "LONGITUDE": -102.367224774, "brigade": null, "Link": null }, "geometry": { "type": "Point", "coordinates": [ -11395467.33575776591897, 3743055.181991551071405 ] } }
,
{ "type": "Feature", "id": 309, "properties": { "NAME": "Wichita Falls", "LATITUDE": 33.913626321400002, "LONGITUDE": -98.493068483299993, "brigade": null, "Link": null }, "geometry": { "type": "Point", "coordinates": [ -10964198.230222851037979, 4017210.039525020401925 ] } }
,
{ "type": "Feature", "id": 310, "properties": { "NAME": "Waco", "LATITUDE": 31.549171161899999, "LONGITUDE": -97.146380657700007, "brigade": null, "Link": null }, "geometry": { "type": "Point", "coordinates": [ -10814285.627227766439319, 3704276.736973647493869 ] } }
,
{ "type": "Feature", "id": 311, "properties": { "NAME": "Lubbock", "LATITUDE": 33.580003274600003, "LONGITUDE": -101.879967694, "brigade": null, "Link": null }, "geometry": { "type": "Point", "coordinates": [ -11341226.125717829912901, 3972545.18705713795498 ] } }
,
{ "type": "Feature", "id": 312, "properties": { "NAME": "Guasdualito", "LATITUDE": 7.23998313286, "LONGITUDE": -70.7399821387, "brigade": null, "Link": null }, "geometry": { "type": "Point", "coordinates": [ -7874738.790410014800727, 808104.640013794181868 ] } }
,
{ "type": "Feature", "id": 313, "properties": { "NAME": "San Fernando de Apure", "LATITUDE": 7.89999452609, "LONGITUDE": -67.469949179699995, "brigade": null, "Link": null }, "geometry": { "type": "Point", "coordinates": [ -7510720.386537193320692, 882223.159469634760171 ] } }
,
{ "type": "Feature", "id": 314, "properties": { "NAME": "Barinas", "LATITUDE": 8.599977639700001, "LONGITUDE": -70.250012046, "brigade": null, "Link": null }, "geometry": { "type": "Point", "coordinates": [ -7820195.569178314879537, 960960.24511198757682 ] } }
,
{ "type": "Feature", "id": 315, "properties": { "NAME": "Valera", "LATITUDE": 9.31995953261, "LONGITUDE": -70.620015301199999, "brigade": null, "Link": null }, "geometry": { "type": "Point", "coordinates": [ -7861384.143140134401619, 1042098.919379333266988 ] } }
,
{ "type": "Feature", "id": 316, "properties": { "NAME": "Trujillo", "LATITUDE": 9.38039512017, "LONGITUDE": -70.440000449300001, "brigade": null, "Link": null }, "geometry": { "type": "Point", "coordinates": [ -7841344.981492657214403, 1048917.167062948457897 ] } }
,
{ "type": "Feature", "id": 317, "properties": { "NAME": "Cabimas", "LATITUDE": 10.429995136500001, "LONGITUDE": -71.4499904802, "brigade": null, "Link": null }, "geometry": { "type": "Point", "coordinates": [ -7953776.557441904209554, 1167527.882845534477383 ] } }
,
{ "type": "Feature", "id": 318, "properties": { "NAME": "Santa Rita", "LATITUDE": 10.5318269766, "LONGITUDE": -71.503949023, "brigade": null, "Link": null }, "geometry": { "type": "Point", "coordinates": [ -7959783.194943315349519, 1179056.094705927651376 ] } }
,
{ "type": "Feature", "id": 319, "properties": { "NAME": "Machiques", "LATITUDE": 10.0704305206, "LONGITUDE": -72.549949179799995, "brigade": null, "Link": null }, "geometry": { "type": "Point", "coordinates": [ -8076223.399769292213023, 1126852.078574899584055 ] } }
,
{ "type": "Feature", "id": 320, "properties": { "NAME": "San Carlos del Zulia", "LATITUDE": 9.010391864960001, "LONGITUDE": -71.9199876319, "brigade": null, "Link": null }, "geometry": { "type": "Point", "coordinates": [ -8006096.401042829267681, 1007192.316571422619745 ] } }
,
{ "type": "Feature", "id": 321, "properties": { "NAME": "Puerto Cabello", "LATITUDE": 10.4704319447, "LONGITUDE": -68.170009808, "brigade": null, "Link": null }, "geometry": { "type": "Point", "coordinates": [ -7588650.779199295677245, 1172105.21253285673447 ] } }
,
{ "type": "Feature", "id": 322, "properties": { "NAME": "Carora", "LATITUDE": 10.1899839467, "LONGITUDE": -70.079996583699995, "brigade": null, "Link": null }, "geometry": { "type": "Point", "coordinates": [ -7801269.53449476044625, 1140371.466988849453628 ] } }
,
{ "type": "Feature", "id": 323, "properties": { "NAME": "Barquisimeto", "LATITUDE": 10.049992491599999, "LONGITUDE": -69.299966676500006, "brigade": null, "Link": null }, "geometry": { "type": "Point", "coordinates": [ -7714653.614408363588154, 1124761.388438319554552 ] } }
,
{ "type": "Feature", "id": 324, "properties": { "NAME": "Guanare", "LATITUDE": 9.0499760121, "LONGITUDE": -69.7500167253, "brigade": null, "Link": null }, "geometry": { "type": "Point", "coordinates": [ -7764536.344685653224587, 1011654.104086646926589 ] } }
,
{ "type": "Feature", "id": 325, "properties": { "NAME": "Acarigua", "LATITUDE": 9.580382913139999, "LONGITUDE": -69.200024456400001, "brigade": null, "Link": null }, "geometry": { "type": "Point", "coordinates": [ -7703311.485373431816697, 1071487.989764844765887 ] } }
,
{ "type": "Feature", "id": 326, "properties": { "NAME": "New London", "LATITUDE": 41.355523497599997, "LONGITUDE": -72.100028322, "brigade": null, "Link": null }, "geometry": { "type": "Point", "coordinates": [ -8026138.438987379893661, 5064923.576993845403194 ] } }
,
{ "type": "Feature", "id": 327, "properties": { "NAME": "Stamford", "LATITUDE": 41.0533455598, "LONGITUDE": -73.539191123099997, "brigade": null, "Link": null }, "geometry": { "type": "Point", "coordinates": [ -8186345.309175838716328, 5020213.308775100857019 ] } }
,
{ "type": "Feature", "id": 328, "properties": { "NAME": "Waterbury", "LATITUDE": 41.550007750500001, "LONGITUDE": -73.050022015099998, "brigade": null, "Link": null }, "geometry": { "type": "Point", "coordinates": [ -8131891.253153150901198, 5093809.320456027053297 ] } }
,
{ "type": "Feature", "id": 329, "properties": { "NAME": "Bridgeport", "LATITUDE": 41.179978657100001, "LONGITUDE": -73.199961183300005, "brigade": null, "Link": null }, "geometry": { "type": "Point", "coordinates": [ -8148799.017007655464113, 5039212.63451371435076 ] } }
,
{ "type": "Feature", "id": 330, "properties": { "NAME": "New Haven", "LATITUDE": 41.330382913299999, "LONGITUDE": -72.900005332099994, "brigade": null, "Link": null }, "geometry": { "type": "Point", "coordinates": [ -8115191.472397399134934, 5061195.883662488311529 ] } }
,
{ "type": "Feature", "id": 331, "properties": { "NAME": "Hartford", "LATITUDE": 41.770020161, "LONGITUDE": -72.679967083400001, "brigade": null, "Link": null }, "geometry": { "type": "Point", "coordinates": [ -8090913.538587158545852, 5126882.028356389142573 ] } }
,
{ "type": "Feature", "id": 332, "properties": { "NAME": "New Bedford", "LATITUDE": 41.656125304200003, "LONGITUDE": -70.944698325299996, "brigade": null, "Link": null }, "geometry": { "type": "Point", "coordinates": [ -7897527.692051035352051, 5109607.057730161584914 ] } }
,
{ "type": "Feature", "id": 333, "properties": { "NAME": "Springfield", "LATITUDE": 42.120024636899998, "LONGITUDE": -72.579999025099994, "brigade": null, "Link": null }, "geometry": { "type": "Point", "coordinates": [ -8079568.533255144953728, 5178975.543099660426378 ] } }
,
{ "type": "Feature", "id": 334, "properties": { "NAME": "Salem", "LATITUDE": 42.522498903500001, "LONGITUDE": -70.883091745800002, "brigade": null, "Link": null }, "geometry": { "type": "Point", "coordinates": [ -7890669.678992669098079, 5239571.443293678574264 ] } }
,
{ "type": "Feature", "id": 335, "properties": { "NAME": "Pittsfield", "LATITUDE": 42.448195820199999, "LONGITUDE": -73.259828330199994, "brigade": null, "Link": null }, "geometry": { "type": "Point", "coordinates": [ -8155246.785315856337547, 5228355.249672951176763 ] } }
,
{ "type": "Feature", "id": 336, "properties": { "NAME": "Lowell", "LATITUDE": 42.6336883739, "LONGITUDE": -71.3166911231, "brigade": null, "Link": null }, "geometry": { "type": "Point", "coordinates": [ -7938937.740886804647744, 5256380.6542280446738 ] } }
,
{ "type": "Feature", "id": 337, "properties": { "NAME": "Worcester", "LATITUDE": 42.270428893099997, "LONGITUDE": -71.800020794299996, "brigade": null, "Link": null }, "geometry": { "type": "Point", "coordinates": [ -7992741.753772948868573, 5201574.853906387463212 ] } }
,
{ "type": "Feature", "id": 338, "properties": { "NAME": "Manchester", "LATITUDE": 42.9959918407, "LONGITUDE": -71.455287314499998, "brigade": null, "Link": null }, "geometry": { "type": "Point", "coordinates": [ -7954366.198340096510947, 5311361.784125295467675 ] } }
,
{ "type": "Feature", "id": 339, "properties": { "NAME": "Newport", "LATITUDE": 41.490398985900001, "LONGITUDE": -71.3133579932, "brigade": null, "Link": null }, "geometry": { "type": "Point", "coordinates": [ -7938566.698565505445004, 5084946.728090858086944 ] } }
,
{ "type": "Feature", "id": 340, "properties": { "NAME": "Providence", "LATITUDE": 41.821102314299999, "LONGITUDE": -71.414979697299998, "brigade": null, "Link": null }, "geometry": { "type": "Point", "coordinates": [ -7950095.786909614689648, 5134509.663033979013562 ] } }
,
{ "type": "Feature", "id": 341, "properties": { "NAME": "Montpelier", "LATITUDE": 44.2599715363, "LONGITUDE": -72.575813234099996, "brigade": null, "Link": null }, "geometry": { "type": "Point", "coordinates": [ -8079102.573130724020302, 5505761.914470414631069 ] } }
,
{ "type": "Feature", "id": 342, "properties": { "NAME": "Auburn", "LATITUDE": 32.609700743600001, "LONGITUDE": -85.480839479300002, "brigade": null, "Link": null }, "geometry": { "type": "Point", "coordinates": [ -9515683.523416748270392, 3843612.11796338763088 ] } }
,
{ "type": "Feature", "id": 343, "properties": { "NAME": "Florence", "LATITUDE": 34.7996962677, "LONGITUDE": -87.677242881, "brigade": null, "Link": null }, "geometry": { "type": "Point", "coordinates": [ -9760186.031670773401856, 4136693.873861298896372 ] } }
,
{ "type": "Feature", "id": 344, "properties": { "NAME": "Dothan", "LATITUDE": 31.223454609200001, "LONGITUDE": -85.390586590300003, "brigade": null, "Link": null }, "geometry": { "type": "Point", "coordinates": [ -9505636.617770893499255, 3661803.107073238585144 ] } }
,
{ "type": "Feature", "id": 345, "properties": { "NAME": "Tuscaloosa", "LATITUDE": 33.225115375800002, "LONGITUDE": -87.544176067799995, "brigade": null, "Link": null }, "geometry": { "type": "Point", "coordinates": [ -9745373.101789258420467, 3925222.526650350075215 ] } }
,
{ "type": "Feature", "id": 346, "properties": { "NAME": "Gadsden", "LATITUDE": 34.014550393699999, "LONGITUDE": -86.006647177900007, "brigade": null, "Link": null }, "geometry": { "type": "Point", "coordinates": [ -9574216.168676726520061, 4030755.955884349532425 ] } }
,
{ "type": "Feature", "id": 347, "properties": { "NAME": "Enterprise", "LATITUDE": 31.3278151642, "LONGITUDE": -85.8439956072, "brigade": null, "Link": null }, "geometry": { "type": "Point", "coordinates": [ -9556109.878656504675746, 3675395.762798848561943 ] } }
,
{ "type": "Feature", "id": 348, "properties": { "NAME": "Selma", "LATITUDE": 32.407568378699999, "LONGITUDE": -87.021158896599999, "brigade": null, "Link": null }, "geometry": { "type": "Point", "coordinates": [ -9687151.096612233668566, 3816930.019220351241529 ] } }
,
{ "type": "Feature", "id": 349, "properties": { "NAME": "Birmingham", "LATITUDE": 33.530006326299997, "LONGITUDE": -86.824995159599993, "brigade": null, "Link": null }, "geometry": { "type": "Point", "coordinates": [ -9665314.249299520626664, 3965866.603088026400656 ] } }
,
{ "type": "Feature", "id": 350, "properties": { "NAME": "Mobile", "LATITUDE": 30.6800252472, "LONGITUDE": -88.049984987100004, "brigade": null, "Link": null }, "geometry": { "type": "Point", "coordinates": [ -9801679.493121407926083, 3591263.680232818704098 ] } }
,
{ "type": "Feature", "id": 351, "properties": { "NAME": "Winter Haven", "LATITUDE": 28.021918761199998, "LONGITUDE": -81.733006227299995, "brigade": null, "Link": null }, "geometry": { "type": "Point", "coordinates": [ -9098476.634229552000761, 3251737.525125445332378 ] } }
,
{ "type": "Feature", "id": 352, "properties": { "NAME": "Melbourne", "LATITUDE": 28.083310362799999, "LONGITUDE": -80.608320354900002, "brigade": null, "Link": null }, "geometry": { "type": "Point", "coordinates": [ -8973277.175611568614841, 3259481.38644413324073 ] } }
,
{ "type": "Feature", "id": 353, "properties": { "NAME": "Homestead", "LATITUDE": 25.468302021300001, "LONGITUDE": -80.477785687, "brigade": null, "Link": null }, "geometry": { "type": "Point", "coordinates": [ -8958746.12284235842526, 2933375.513124626129866 ] } }
,
{ "type": "Feature", "id": 354, "properties": { "NAME": "Sanford", "LATITUDE": 28.789959736099998, "LONGITUDE": -81.2799847836, "brigade": null, "Link": null }, "geometry": { "type": "Point", "coordinates": [ -9048046.517799923196435, 3348939.680979098193347 ] } }
,
{ "type": "Feature", "id": 355, "properties": { "NAME": "Miami Beach", "LATITUDE": 25.8099195339, "LONGITUDE": -80.131781105200005, "brigade": null, "Link": null }, "geometry": { "type": "Point", "coordinates": [ -8920229.068985184654593, 2975557.646806656848639 ] } }
,
{ "type": "Feature", "id": 356, "properties": { "NAME": "Coral Springs", "LATITUDE": 26.270837014800001, "LONGITUDE": -80.270821575599996, "brigade": null, "Link": null }, "geometry": { "type": "Point", "coordinates": [ -8935706.983356738463044, 3032664.120550798252225 ] } }
,
{ "type": "Feature", "id": 357, "properties": { "NAME": "Port Charlotte", "LATITUDE": 27.0000431508, "LONGITUDE": -82.105696657, "brigade": null, "Link": null }, "geometry": { "type": "Point", "coordinates": [ -9139964.343086067587137, 3123477.140232926234603 ] } }
,
{ "type": "Feature", "id": 358, "properties": { "NAME": "Spring Hill", "LATITUDE": 28.478945128399999, "LONGITUDE": -82.547711020600005, "brigade": null, "Link": null }, "geometry": { "type": "Point", "coordinates": [ -9189169.156966280192137, 3309493.111739238258451 ] } }
,
{ "type": "Feature", "id": 359, "properties": { "NAME": "Palm Coast", "LATITUDE": 29.5380019318, "LONGITUDE": -81.223295737399994, "brigade": null, "Link": null }, "geometry": { "type": "Point", "coordinates": [ -9041735.922040686011314, 3444301.46389269316569 ] } }
,
{ "type": "Feature", "id": 360, "properties": { "NAME": "Palatka", "LATITUDE": 29.6476851593, "LONGITUDE": -81.6513057879, "brigade": null, "Link": null }, "geometry": { "type": "Point", "coordinates": [ -9089381.782912010326982, 3458342.969476266764104 ] } }
,
{ "type": "Feature", "id": 361, "properties": { "NAME": "Leesburg", "LATITUDE": 28.810501118, "LONGITUDE": -81.883332968900007, "brigade": null, "Link": null }, "geometry": { "type": "Point", "coordinates": [ -9115210.930550077930093, 3351549.111323110293597 ] } }
,
{ "type": "Feature", "id": 362, "properties": { "NAME": "Lake City", "LATITUDE": 30.1897192576, "LONGITUDE": -82.639746746499995, "brigade": null, "Link": null }, "geometry": { "type": "Point", "coordinates": [ -9199414.527109568938613, 3527959.869965313002467 ] } }
,
{ "type": "Feature", "id": 363, "properties": { "NAME": "Crestview", "LATITUDE": 30.754206765799999, "LONGITUDE": -86.572607464300006, "brigade": null, "Link": null }, "geometry": { "type": "Point", "coordinates": [ -9637218.57957473769784, 3600869.185130642261356 ] } }
,
{ "type": "Feature", "id": 364, "properties": { "NAME": "Panama City", "LATITUDE": 30.1586100454, "LONGITUDE": -85.655273276499997, "brigade": null, "Link": null }, "geometry": { "type": "Point", "coordinates": [ -9535101.404898319393396, 3523954.021959746722132 ] } }
,
{ "type": "Feature", "id": 365, "properties": { "NAME": "Coral Gables", "LATITUDE": 25.715418720500001, "LONGITUDE": -80.291078737099994, "brigade": null, "Link": null }, "geometry": { "type": "Point", "coordinates": [ -8937962.000255204737186, 2963876.812891172710806 ] } }
,
{ "type": "Feature", "id": 366, "properties": { "NAME": "Cape Coral", "LATITUDE": 26.602909768699998, "LONGITUDE": -81.979683676899995, "brigade": null, "Link": null }, "geometry": { "type": "Point", "coordinates": [ -9125936.642303124070168, 3073947.566589878406376 ] } }
,
{ "type": "Feature", "id": 367, "properties": { "NAME": "Naples", "LATITUDE": 26.142059345500002, "LONGITUDE": -81.794992107900001, "brigade": null, "Link": null }, "geometry": { "type": "Point", "coordinates": [ -9105376.87088698707521, 3016686.266757244709879 ] } }
,
{ "type": "Feature", "id": 368, "properties": { "NAME": "Fort Pierce", "LATITUDE": 27.446785908, "LONGITUDE": -80.325805299600006, "brigade": null, "Link": null }, "geometry": { "type": "Point", "coordinates": [ -8941827.743509722873569, 3179403.499894867185503 ] } }
,
{ "type": "Feature", "id": 369, "properties": { "NAME": "Kissimmee", "LATITUDE": 28.292057311, "LONGITUDE": -81.407780600699994, "brigade": null, "Link": null }, "geometry": { "type": "Point", "coordinates": [ -9062272.683080308139324, 3285845.684300333727151 ] } }
,
{ "type": "Feature", "id": 370, "properties": { "NAME": "Titusville", "LATITUDE": 28.6123478383, "LONGITUDE": -80.807791383600005, "brigade": null, "Link": null },